id,time,location,latitude,longitude,district,nature,status
1211372,2018-05-01 00:10:28,"5237 N 35TH ST,MKE",43.1127987,-87.95674149999999,4,TRBL W/SUBJ,Unable to Locate Complainant
1211378,2018-05-01 00:18:31,"5262 N 38TH ST,MKE",43.1133303,-87.9597934,4,PROPERTY DAMAGE,Service in Progress
1211384,2018-05-01 00:10:24,"3017-A N 28TH ST,MKE",43.0737821,-87.94879379999999,5,BATTERY,Unable to Locate Complainant
1211427,2018-05-01 00:18:46,"2483 W HADLEY ST,MKE",43.0695391,-87.9446813,5,PROPERTY DAMAGE,To be Filed
1211385,2018-05-01 00:09:30,"2912 N 5TH ST,MKE",43.071596,-87.9166855,5,SUSP PERS/AUTO,Unable to Locate Complainant
1211358,2018-05-01 00:06:30,"4450 N 58TH ST,MKE",43.0984092,-87.9850963,7,PROPERTY DAM-DV,Unable to Locate Complainant
1211428,2018-05-01 00:10:58,"3288 N 27TH ST,MKE",43.078937,-87.946861,5,CHILD CUSTODY,Unable to Locate Complainant
1211410,2018-05-01 00:04:57,"3006 S 27TH ST,MKE",42.990477,-87.9475489,6,CONVEY PROPERTY,Assignment Completed
1211360,2018-05-01 00:05:53,"3032 W BOBOLINK AV,MKE",43.124879,-87.9508819,4,THEFT,Service in Progress
1211388,2018-05-01 00:24:02,"4519 N 73RD ST,MKE",43.0996031,-88.0034786,7,ENTRY,Service in Progress
1211492,2018-05-01 00:52:44,"8976 N MICHELE ST,MKE",43.1822277,-88.03084419999999,4,NOISE NUISANCE,No Prosecution
1211393,2018-05-01 00:09:40,"4485 N TEUTONIA AV,MKE",43.0987224,-87.94401119999999,5,BATTERY DV,Unable to Locate Complainant
1211420,2018-05-01 00:43:36,"5099 N 107TH ST,MKE",43.1103488,-88.04579199999999,4,SUBJ WANTED,Unable to Locate Complainant
1211417,2018-05-01 00:12:41,"2440 N 12TH ST,MKE",43.06312080000001,-87.92666919999999,3,PROPERTY DAMAGE,Open Investigation
1211426,2018-05-01 00:41:25,"3128 N 16TH ST,MKE",43.0757237,-87.9309631,5,SUBJ WANTED,Advised/Referral
1211362,2018-05-01 00:14:27,"N 60TH ST / W CAPITOL DR,MKE",43.0903222,-87.9873341,7,RECK USE OF WEAP,Open Investigation
1211409,2018-05-01 00:05:36,"6205 N 84TH ST,MKE",43.1307969,-88.01607159999999,4,SUSP PERS/AUTO,Advised
1211529,2018-05-01 01:41:58,"1028 W NATIONAL AV,MKE",43.023452,-87.9248813,2,THEFT,Unable to Locate Complainant
1211366,2018-05-01 00:13:06,"5353 N 54TH ST,MKE",43.1150274,-87.98027599999999,4,TRBL W/SUBJ-DV,Service in Progress
1211376,2018-05-01 00:00:14,"2900 W OKLAHOMA AV,MKE",42.98957799999999,-87.950789,6,ENTRY AUTOS,To be Filed
1211468,2018-05-01 00:28:52,"5078 N 22ND ST,MKE",43.1099403,-87.93892729999999,7,TRBL W/SUBJ,Assignment Completed
1211357,2018-05-01 00:06:39,"1317 W MINERAL ST,MKE",43.0209007,-87.9285586,2,BATTERY DV,Service in Progress
1211380,2018-05-01 00:17:27,"9089 N 75TH ST,MKE",43.1830339,-88.0029369,4,ROBBERY ST ARM,Unable to Locate Complainant
1211364,2018-05-01 00:14:01,"N 43RD ST / W KIEHNAU AV,MKE",43.1368866,-87.96600540000001,4,ACC PI,Service in Progress
1211387,2018-05-01 00:03:46,"2854 N 33RD ST,MKE",43.0709345,-87.9549033,7,ENTRY-DV,Advised/Referral
1211355,2018-05-01 00:07:33,"4667 W LEON TR,MKE",43.0879795,-87.97205389999999,7,CALL FOR POLICE,Unable to Locate Complainant
1211418,2018-05-01 00:07:30,"2917 W BROWN ST,MKE",43.0561636,-87.95056579999999,3,TRBL W/SUBJ,Unable to Locate Complainant
1211348,2018-05-01 00:00:15,"5800 S 13TH ST,MKE",42.9393123,-87.9294881,6,PATROL,Assignment Completed
1211369,2018-05-01 00:12:12,"9402 W BECKETT AV,MKE",43.1177321,-88.0302328,4,TRBL W/SUBJ-DV,Service in Progress
1211375,2018-05-01 00:03:45,"3921 N HUMBOLDT BL,MKE",43.088746,-87.89980969999999,5,FIRE,Assignment Completed
1211359,2018-05-01 00:06:07,"N 17TH ST / W CENTER ST,MKE",43.06774679999999,-87.93377260000001,3,SHOOTING,Unable to Locate Complainant
1211386,2018-05-01 00:08:28,"1609 E NORTH AV,MKE",43.0598103,-87.8900283,1,SUSP PERS/AUTO,Advised
1211404,2018-05-01 00:31:05,"4661 N 38TH ST,MKE",43.1021131,-87.9605232,7,TRBL W/SUBJ,Assignment Completed
1211407,2018-05-01 00:14:06,"1522 W SCOTT ST,MKE",43.0192437,-87.9313208,2,CALL FOR POLICE,Advised
1211374,2018-05-01 00:09:31,"1944 W BURNHAM ST,MKE",43.0104844,-87.93798009999999,2,SHOTSPOTTER,Unable to Locate Complainant
1211398,2018-05-01 00:17:34,"N 46TH ST / W LISBON AV,MKE",43.0751087,-87.9710805,3,SUBJ WITH GUN,Unable to Locate Complainant
1211370,2018-05-01 00:11:54,"2950 N OAKLAND AV,MKE",43.0722108,-87.8875777,1,RECK USE OF WEAP,Advised
1211365,2018-05-01 00:13:39,"7277 W LAKEFIELD DR,MKE",42.9880401,-88.00361509999999,6,SUSP PERS/AUTO,Advised
1211383,2018-05-01 00:12:30,"E ERIE ST / N JEFFERSON ST,MKE",43.0300342,-87.9053339,1,PATROL,Assignment Completed
1211382,2018-05-01 00:15:13,"N 51ST BL / W ROOSEVELT DR,MKE",43.0813539,-87.9772074,7,SHOTS FIRED,Unable to Locate Complainant
1211381,2018-05-01 00:16:19,"369 E OKLAHOMA AV,MKE",42.98804080000001,-87.9048121,6,BUSINESS CHECK,Assignment Completed
1211392,2018-05-01 00:20:09,"547 N 31ST ST,MKE",43.03723919999999,-87.9529192,3,SHOTS FIRED,Advised
1211391,2018-05-01 00:22:00,"110 E LAYTON AV,MKE",42.9594561,-87.9090203,6,BUSINESS CHECK,Assignment Completed
1211469,2018-05-01 00:22:05,"2920 N 4TH ST,MKE",43.0716492,-87.91518429999999,5,PRISONER TRANS,Assignment Completed
1211406,2018-05-01 00:23:01,"2333 N 49TH ST,MKE",43.0613891,-87.97516410000001,3,RETURN STATION,Assignment Completed
1211403,2018-05-01 00:31:26,"S 6TH ST / W CLEVELAND AV,MKE",43.002476,-87.919209,2,WELFARE CITIZEN,Assignment Completed
1211397,2018-05-01 00:25:44,"2023 S KINNICKINNIC AV,MKE",43.0068109,-87.9079022,2,BUSINESS CHECK,Assignment Completed
1211396,2018-05-01 00:27:10,"2242 N 12TH ST,MKE",43.0601492,-87.9265884,3,BUSINESS CHECK,Assignment Completed
1211405,2018-05-01 00:27:21,"4762 S 27TH ST,MKE",42.957972,-87.9482803,6,TRAFFIC STOP,City Citation(s) Issued
1211459,2018-05-01 00:31:32,"1718 S KINNICKINNIC AV,MKE",43.01193190000001,-87.9099586,2,INJ PERSON/SICK,Assignment Completed
1211416,2018-05-01 00:35:25,"S 6TH ST / W BECHER ST,MKE",43.0134124,-87.9177671,2,FIRE,Advised/Referral
1211595,2018-05-01 01:49:52,"5720 N 76TH ST,MKE",43.121947,-88.005532,4,FAMILY TROUBLE,Advised
1211446,2018-05-01 00:50:05,"2213 S 15TH PL,MKE",43.00428540000001,-87.9326201,2,NOISE NUISANCE,Advised
1211401,2018-05-01 00:32:07,"3539 S HOWELL AV,MKE",42.9801998,-87.90837789999999,6,TS TARGETED,Advised
1211415,2018-05-01 00:36:07,"4139 N 78TH CT,MKE",43.0926214,-88.010863,7,SUSP PERS/AUTO,Advised
1211400,2018-05-01 00:33:27,"1341 W NORTH AV,MKE",43.060097,-87.9288167,3,BUSINESS CHECK,Assignment Completed
1211399,2018-05-01 00:33:43,"200 W GRANGE AV,MKE",42.9471145,-87.9139158,6,BUSINESS CHECK,Assignment Completed
1211455,2018-05-01 00:55:09,"2333 N 49TH ST,MKE",43.0613891,-87.97516410000001,3,CONVEY PROPERTY,Service in Progress
1211503,2018-05-01 00:38:10,"1400 E BRADY ST,MKE",43.0531544,-87.8934292,1,THEFT,No Prosecution
1211434,2018-05-01 00:47:27,"N 55TH ST / W VILLARD AV,MKE",43.1120595,-87.9812561,7,SUSP PERS/AUTO,Unable to Locate Complainant
1211412,2018-05-01 00:39:45,"3319 W TOWNSEND ST,MKE",43.0805559,-87.95508799999999,7,CALL FOR POLICE,Unable to Locate Complainant
1211413,2018-05-01 00:38:24,"S AUSTIN ST / E DEWEY PL,MKE",42.9917312,-87.9068009,6,VEHICLE PURSUIT,Service in Progress
1211435,2018-05-01 00:45:13,"7952 N 94TH ST,MKE",43.16233,-88.028528,4,THEFT,Advised/Referral
1211458,2018-05-01 00:50:09,"853 N 23RD ST,MKE",43.04145339999999,-87.94194350000001,3,PROPERTY DAMAGE,Unable to Locate Complainant
1211425,2018-05-01 00:41:30,"5220 W NORTH AV,MKE",43.0608071,-87.9794412,3,BUSINESS CHECK,Assignment Completed
1211424,2018-05-01 00:41:38,"2624 W LISBON AV,MKE",43.0537379,-87.94717,3,TRAFFIC STOP,Assignment Completed
1211423,2018-05-01 00:42:12,"551 W BECHER ST,MKE",43.0063713,-87.9179104,2,TRAFFIC STOP,Assignment Completed
1211422,2018-05-01 00:42:43,"N FARWELL AV / E KENWOOD BL,MKE",43.07479550000001,-87.8813838,1,BUS INVESTIGATIO,Assignment Completed
1211421,2018-05-01 00:43:19,"3530 W SILVER SPRING DR,MKE",43.119502,-87.95729,4,TAVERN CHECK,Assignment Completed
1211419,2018-05-01 00:44:18,"3500 W WISCONSIN AV,MKE",43.0388057,-87.95771909999999,3,PATROL,Assignment Completed
1211432,2018-05-01 00:47:31,"2422 W HIGHLAND AV,MKE",43.0446505,-87.94364739999999,3,SHOTS FIRED,Unable to Locate Complainant
1211478,2018-05-01 00:48:03,"S 16TH ST / W OKLAHOMA AV,MKE",42.9883292,-87.9337826,6,SUBJ WITH WEAPON,Assignment Completed
1211433,2018-05-01 00:47:29,"2100 W ATKINSON AV,MKE",43.0915566,-87.93840139999999,5,TRAFFIC STOP,Advised
1211431,2018-05-01 00:47:34,"749 W STATE ST,MKE",43.0426483,-87.9212718,1,RETURN STATION,Assignment Completed
1211475,2018-05-01 00:57:33,"2830 N 34TH ST,MKE",43.070426,-87.95589199999999,7,MEET MFD,To be Filed
1211491,2018-05-01 00:55:52,"2920 N 4TH ST,MKE",43.0716492,-87.91518429999999,5,CITIZEN CONVEY,Assignment Completed
1211429,2018-05-01 00:49:58,"N FARWELL AV / E NORTH AV,MKE",43.07100740000001,-87.8817242,1,TS TARGETED,Advised
1211444,2018-05-01 00:50:15,"7343 W APPLETON AV,MKE",43.0891753,-88.0039455,7,TRAFFIC STOP,City Citation(s) Issued
1211457,2018-05-01 00:50:33,"2333 N 49TH ST,MKE",43.0613891,-87.97516410000001,3,RETURN STATION,Assignment Completed
1211442,2018-05-01 00:52:16,"100 W HOLT AV,MKE",42.9824803,-87.9101731,6,TRAFFIC STOP,Advised
1211441,2018-05-01 00:52:24,"N 32ND ST / W HAMPTON AV,MKE",43.1050529,-88.06693159999999,5,INJ PERSON/SICK,Assignment Completed
1211436,2018-05-01 00:54:42,"320 E CENTER ST,MKE",43.067739,-87.90705,5,BATTERY,Advised/Referral
1211517,2018-05-01 00:53:56,"N 32ND ST / W HAMPTON AV,MKE",43.1050529,-88.06693159999999,5,TRAFFIC HAZARD,Assignment Completed
1211456,2018-05-01 00:54:07,"3333 N 3RD ST,MKE",43.079558,-87.914215,5,PROBATION/PAROLE,Advised/Referral
1211437,2018-05-01 00:54:28,"2920 N 4TH ST,MKE",43.0716492,-87.91518429999999,5,ASSIGNMENT,Service in Progress
1211477,2018-05-01 00:57:03,"4730 S 27TH ST,MKE",42.9587157,-87.9482517,6,SUBJ WITH WEAPON,Assignment Completed
1211476,2018-05-01 00:57:04,"5953 N 63RD ST,MKE",43.1259909,-87.9897435,4,SHOTS FIRED,Unable to Locate Complainant
1211454,2018-05-01 00:55:49,"5174 N 35TH ST,MKE",43.1114182,-87.95609,7,TRAFFIC STOP,Advised
1211452,2018-05-01 00:56:29,"3522 W WISCONSIN AV,MKE",43.0392112,-87.9586738,3,BUSINESS CHECK,Assignment Completed
1211451,2018-05-01 00:56:35,"2023 S KINNICKINNIC AV,MKE",43.0068109,-87.9079022,2,BUSINESS CHECK,Advised
1211465,2018-05-01 01:02:10,"2333 N 49TH ST,MKE",43.0613891,-87.97516410000001,3,PRISONER TRANS,Service in Progress
1211626,2018-05-01 01:44:54,"6075 N RIVER TRAIL DR,MKE",43.1279985,-88.0645619,4,NOISE NUISANCE,Advised
1211447,2018-05-01 00:59:57,"245 W LINCOLN AV,MKE",43.0024358,-87.9136371,2,RETURN STATION,Assignment Completed
1211484,2018-05-01 01:01:17,"N 99TH ST / W CARMEN AV,MKE",43.1230723,-88.0357147,4,SHOTS FIRED,Assignment Completed
1211490,2018-05-01 01:01:45,"3415 W MT VERNON AV,MKE",43.03343,-87.95699300000001,3,TRBL W/SUBJ-DV,Advised
1211609,2018-05-01 01:59:53,"5499 N 72ND ST,MKE",43.1174043,-88.0019538,4,TRBL W/SUBJ,Open Investigation
1211464,2018-05-01 01:02:30,"3626 W FOND DU LAC AV,MKE",43.0766866,-87.95881700000001,7,REPORTS,Service in Progress
1211463,2018-05-01 01:02:49,"3510 W LINCOLN AV,MKE",43.00329139999999,-87.9584165,2,BUSINESS CHECK,Assignment Completed
1211474,2018-05-01 01:03:44,"3951 N 30TH ST,MKE",43.0886735,-87.95090650000002,5,SUBJ STOP,Advised
1211461,2018-05-01 01:04:27,7616 W HAMPTON AV,43.1064263,-88.0070002,7,BUSINESS CHECK,Assignment Completed
1211489,2018-05-01 01:04:32,"3500 W GALENA ST,MKE",43.05148699999999,-87.9576183,3,FOLLOW UP,Assignment Completed
1211473,2018-05-01 01:06:20,"3250 N TEUTONIA AV,MKE",43.0779776,-87.9327273,5,TRAFFIC STOP,Advised
1211472,2018-05-01 01:06:31,"2045 S 34TH ST,MKE",43.0074451,-87.9568938,2,FOLLOW UP,Assignment Completed
1211485,2018-05-01 01:18:35,"5268 S 27TH ST,MKE",42.9491253,-87.94824179999999,6,ACC PDO,Service in Progress
1211511,2018-05-01 01:22:53,"9520 N 107TH ST,MKE",43.1904578,-88.04330060000001,4,TRBL W/SUBJ,Unable to Locate Complainant
1211471,2018-05-01 01:07:11,"S 12TH ST / W MINERAL ST,MKE",47.3744541,-115.3772057,2,TRAFFIC STOP,Advised
1211470,2018-05-01 01:08:45,"1424 W MITCHELL ST,MKE",43.01258,-87.93030700000001,2,TS TARGETED,City Citation(s) Issued
1211483,2018-05-01 01:10:33,"4500 W HAMPTON AV,MKE",43.1046996,-87.96905989999999,7,TRAFFIC STOP,Advised
1211482,2018-05-01 01:12:10,"9000 W KAUL AV,MKE",43.1287084,-88.02440089999999,4,TAVERN CHECK,Assignment Completed
1211502,2018-05-01 01:12:58,"1430 W HAUSER AV,MKE",43.0950623,-87.9283213,5,CALL FOR POLICE,Advised
1211480,2018-05-01 01:13:07,"2237 N HOLTON ST,MKE",43.0599079,-87.905705,5,BUSINESS CHECK,Assignment Completed
1211479,2018-05-01 01:13:28,"1515 W NORTH AV,MKE",43.0602285,-87.9317568,3,BUSINESS CHECK,Assignment Completed
1211488,2018-05-01 01:15:03,"2967 N 24TH ST,MKE",43.0729389,-87.9426036,5,TRBL W/SUBJ-DV,Advised
1211487,2018-05-01 01:15:45,"1455 N 27TH ST,MKE",43.049657,-87.94808990000001,3,TRAFFIC STOP,Advised
1211501,2018-05-01 01:18:27,"245 W LINCOLN AV,MKE",43.0024358,-87.9136371,2,RETURN STATION,Assignment Completed
1211499,2018-05-01 01:20:33,"5255 N 47TH ST,MKE",43.1132369,-87.9716191,4,SUSP PERS/AUTO,Advised/Referral
1211500,2018-05-01 01:20:25,"1254 N 35TH ST,MKE",43.046905,-87.9573364,3,BUSINESS CHECK,Assignment Completed
1211507,2018-05-01 01:25:18,"245 W LINCOLN AV,MKE",43.0024358,-87.9136371,2,ROBBERY ST ARM,Service in Progress
1211509,2018-05-01 01:24:02,"1542-A S PEARL ST,MKE",43.01496470000001,-87.9334846,2,BATTERY,City Citation(s) Issued
1211512,2018-05-01 01:22:34,"5100 W SILVER SPRING DR,MKE",43.11941239999999,-87.97622980000001,4,TRAFFIC STOP,City Citation(s) Issued
1211496,2018-05-01 01:22:55,"3100 W CONCORDIA AV,MKE",43.0798107,-87.95218419999999,5,BUSINESS CHECK,Assignment Completed
1211495,2018-05-01 01:23:13,"N FARWELL AV / E NORTH AV,MKE",43.07100740000001,-87.8817242,1,TRAFFIC STOP,Advised
1211510,2018-05-01 01:23:18,"1417 S MUSKEGO AV,MKE",43.0168349,-87.9335657,2,TRAFFIC STOP,City Citation(s) Issued
1211506,2018-05-01 01:25:59,"E STATE ST / N VAN BUREN ST,MKE",43.03724709999999,-87.90195829999999,1,SUSP PERS/AUTO,Service in Progress
1211508,2018-05-01 01:25:01,"502 W GREENFIELD AV,MKE",43.0172017,-87.9170279,2,BUSINESS CHECK,Advised
1211550,2018-05-01 01:28:37,"3320 N 23RD ST,MKE",43.0792508,-87.9409155,5,FAMILY TROUBL-DV,Advised
1211532,2018-05-01 01:29:25,"7609 W CAPITOL DR,MKE",43.089696,-88.0079092,7,DRUG DEALING,City Citation(s) Issued
1211516,2018-05-01 01:30:25,"9130 W HAMPTON AV,MKE",43.1052376,-88.0271181,7,BUSINESS CHECK,Assignment Completed
1211515,2018-05-01 01:31:10,8775 N 107TH ST,43.177254,-88.0448418,4,TAVERN CHECK,Assignment Completed
1211514,2018-05-01 01:32:49,"1609 E NORTH AV,MKE",43.0598103,-87.8900283,1,BUSINESS CHECK,Assignment Completed
1211513,2018-05-01 01:34:19,"1411 W ATKINSON AV,MKE",43.085991,-87.92889699999999,5,TRAFFIC STOP,Advised
1211539,2018-05-01 01:46:50,"5731 W BIRCH AV,MKE",43.116212,-87.98465999999999,4,NOTIFICATION,Advised
1211518,2018-05-01 01:38:19,"9002 W HOWARD AV,MKE",42.9739972,-88.0254126,6,TRBL W/SUBJ-DV,Advised
1211520,2018-05-01 01:35:34,"6929 W SILVER SPRING DR,MKE",43.1188947,-87.9982818,4,RETURN STATION,Assignment Completed
1211531,2018-05-01 01:35:36,"2800 S HOWELL AV,MKE",42.9935553,-87.90432059999999,6,PATROL,Assignment Completed
1211542,2018-05-01 01:41:42,"1401 S COMSTOCK AV,MKE",43.0168657,-87.93610939999999,2,SUBJ STOP,Assignment Completed
1211528,2018-05-01 01:42:02,"3500 W LISBON AV,MKE",43.0549128,-87.9577742,3,PATROL,Assignment Completed
1211549,2018-05-01 01:43:12,"2333 N 49TH ST,MKE",43.0613891,-87.97516410000001,3,RETURN STATION,Assignment Completed
1211526,2018-05-01 01:43:38,"10433 W APPLETON AV,MKE",43.1252074,-88.0435593,4,TAVERN CHECK,Assignment Completed
1211610,2018-05-01 01:44:21,"5166 N LOVERS LANE RD,MKE",43.1113709,-88.0547222,4,INVESTIGATION,Unable to Locate Complainant
1211524,2018-05-01 01:44:28,"2627 W CAPITOL DR,MKE",43.0894967,-87.94670230000001,5,TRAFFIC STOP,Advised
1211548,2018-05-01 01:44:46,"3709 N 27TH ST,MKE",43.0850027,-87.9473711,5,TRAFFIC STOP,Advised
1211642,2018-05-01 01:45:09,"N 12TH ST / W NORTH AV,MKE",43.0630981,-87.92685910000002,3,SPECIAL ASSIGN,Assignment Completed
1211565,2018-05-01 01:46:25,"MILL/PILGRIM, MENOMONEE FALLS",34.2384924,-84.0949531,4,SPECIAL ASSIGN,Assignment Completed
1211538,2018-05-01 01:47:01,"2867 N OAKLAND AV,MKE",43.0708354,-87.88817739999999,1,BUSINESS CHECK,Assignment Completed
1211575,2018-05-01 01:47:50,"405 N 27TH ST,MKE",43.0348058,-87.94780829999999,3,BUSINESS CHECK,Assignment Completed
1211536,2018-05-01 01:48:20,"245 W LINCOLN AV,MKE",43.0024358,-87.9136371,2,POLICE ADMIN,Assignment Completed
1211534,2018-05-01 01:49:20,"2544 N 35TH ST,MKE",43.0652915,-87.9572664,3,BATTERY DV,Service in Progress
1211535,2018-05-01 01:48:51,"9208 W CAPITOL DR,MKE",43.090016,-88.028183,7,BUSINESS CHECK,Assignment Completed
1211547,2018-05-01 01:50:20,"1300 W COLLEGE AV,MKE",42.9308255,-87.9301134,6,BUSINESS CHECK,Assignment Completed
1211564,2018-05-01 01:53:17,"9200 W BLUE MOUND RD,MKE",43.0361733,-88.0278089,3,BUSINESS CHECK,Assignment Completed
1211545,2018-05-01 01:54:00,"800 S 2ND ST,MKE",43.0230152,-87.912296,2,BUSINESS CHECK,Assignment Completed
1211544,2018-05-01 01:54:59,"2625 W NATIONAL AV,MKE",43.02200759999999,-87.9468828,2,SUBJ STOP,Advised
1211563,2018-05-01 01:55:00,"9206 W CAPITOL DR,MKE",43.0900199,-88.0281029,7,BUSINESS CHECK,Assignment Completed
1211562,2018-05-01 01:55:15,"7170 W BURLEIGH ST,MKE",43.0755673,-88.00212789999999,7,TAVERN CHECK,Assignment Completed
1211554,2018-05-01 01:55:42,"5075 N SHERMAN BL,MKE",43.1090397,-87.96824199999999,7,BUSINESS CHECK,Assignment Completed
1211553,2018-05-01 01:55:53,"3626 W FOND DU LAC AV,MKE",43.0766866,-87.95881700000001,7,ASSIGNMENT,Assignment Completed
1211574,2018-05-01 01:58:22,"2301 N LAKE DR,MKE",43.0605802,-87.8823656,1,BUSINESS CHECK,Assignment Completed
1211593,2018-05-01 02:06:28,"1619 S 20TH ST,MKE",43.013698,-87.93851699999999,2,NOISE NUISANCE,Advised
1211573,2018-05-01 02:02:09,2126 W HAYES,41.5475723,-90.60726939999999,2,FOLLOW UP,Assignment Completed
1211560,2018-05-01 02:02:47,"S 27TH ST / W LAYTON AV,GFD",42.9593175,-87.9485656,6,PD/OTHER IN MKE,Assignment Completed
1211559,2018-05-01 02:02:59,"S 38TH ST / W NATIONAL AV,MKE",42.99210859999999,-87.96166439999999,2,VEHICLE PURSUIT,Assignment Completed
1211558,2018-05-01 02:03:24,"11800 W SILVER SPRING DR,MKE",43.1174796,-88.0598782,4,BUSINESS CHECK,Assignment Completed
1211557,2018-05-01 02:04:02,"2856 N OAKLAND AV,MKE",43.0707191,-87.88756149999999,1,BUSINESS CHECK,Assignment Completed
1211634,2018-05-01 02:05:07,"3430 N 5TH ST,MKE",43.08101480000001,-87.9158976,5,ENTRY,Advised/Referral
1211556,2018-05-01 02:04:35,"9025 W VILLARD AV,MKE",43.1117673,-88.0238755,7,BUSINESS CHECK,Assignment Completed
1211571,2018-05-01 02:05:24,"6800 N 76TH ST,MKE",43.1425537,-88.0042792,4,TRAFFIC STOP,City Citation(s) Issued
1211594,2018-05-01 02:05:30,"4500 N SHERMAN BL,MKE",43.0993493,-87.9664433,7,BUSINESS CHECK,Assignment Completed
1211608,2018-05-01 02:08:22,"3626 W FOND DU LAC AV,MKE",43.0766866,-87.95881700000001,7,REPORTS,Assignment Completed
1211633,2018-05-01 02:09:30,"4725 N 49TH ST,MKE",43.1031869,-87.9746133,7,ENTRY,Assignment Completed
1211566,2018-05-01 02:09:41,"S 23RD ST / W MITCHELL ST,MKE",43.0117875,-87.9418766,2,INVESTIGATION,Service in Progress
1211584,2018-05-01 02:10:04,"2222 W CAPITOL DR,MKE",43.0898471,-87.94017389999999,5,BUSINESS CHECK,Assignment Completed
1211583,2018-05-01 02:10:37,"300 E COLLEGE AV,MKE",42.932506,-87.9057062,6,BUSINESS CHECK,Assignment Completed
1211582,2018-05-01 02:11:45,"600 W LAYTON AV,MKE",42.9592752,-87.91954899999999,6,PATROL,Assignment Completed
1211650,2018-05-01 02:11:49,"6131 N HOPKINS ST,MKE",43.1289216,-87.96741399999999,4,FOLLOW UP,Assignment Completed
1211631,2018-05-01 02:26:19,"3307 N 17TH ST,MKE",43.0792505,-87.93254189999999,5,ENTRY,Advised/Referral
1211580,2018-05-01 02:12:41,"715 S 5TH ST,MKE",43.0238443,-87.917142,2,BUSINESS CHECK,Assignment Completed
1211625,2018-05-01 02:18:34,"N 70TH ST / W FLORIST AV,MKE",43.126312,-87.9984289,4,ACC PI,Assignment Completed
1211579,2018-05-01 02:13:49,"1802 W ATKINSON AV,MKE",43.0884129,-87.9332596,5,SUBJ STOP,Advised
1211607,2018-05-01 02:13:57,"3626 W FOND DU LAC AV,MKE",43.0766866,-87.95881700000001,7,REPORTS,To be Filed
1211617,2018-05-01 02:14:24,"2820 N HUMBOLDT BL,MKE",43.0703243,-87.8977979,5,PARK AND WALK,Assignment Completed
1211606,2018-05-01 02:14:25,"3626 W FOND DU LAC AV,MKE",43.0766866,-87.95881700000001,7,CONVEY PROPERTY,Assignment Completed
1211592,2018-05-01 02:15:14,"3927 W VILLARD AV,MKE",43.11162210000001,-87.9622334,7,TRAFFIC STOP,Advised
1211591,2018-05-01 02:16:01,"1300 W LLOYD ST,MKE",43.05837,-87.92874189999999,3,PARK AND WALK,Assignment Completed
1211590,2018-05-01 02:16:20,"3725 S HOWELL AV,MKE",42.9767889,-87.90999099999999,6,BUSINESS CHECK,Assignment Completed
1211589,2018-05-01 02:16:46,"7600 W CAPITOL DR,MKE",43.0907276,-88.0084063,7,BUSINESS CHECK,Assignment Completed
1211588,2018-05-01 02:17:06,"3959 N 60TH ST,MKE",43.0892948,-87.98734390000001,7,BUSINESS CHECK,Assignment Completed
1211624,2018-05-01 02:19:01,"2938 N 70TH ST,MKE",43.0721363,-87.9994447,7,ENTRY,Assignment Completed
1211605,2018-05-01 02:18:12,"2920 N 4TH ST,MKE",43.0716492,-87.91518429999999,5,RETURN STATION,Assignment Completed
1211641,2018-05-01 02:25:39,"5244 N 38TH ST,MKE",43.11293269999999,-87.9597934,4,SUSP PERS/AUTO,Advised/Referral
1211599,2018-05-01 02:23:55,"3006 S 27TH ST,MKE",42.990477,-87.9475489,6,CONVEY PROPERTY,Service in Progress
1211649,2018-05-01 02:22:43,"N 69TH ST / W CALDWELL CT,MKE",43.113919,-87.99735559999999,4,SHOTS FIRED,Unable to Locate Complainant
1211662,2018-05-01 02:20:48,"2920 N 4TH ST,MKE",43.0716492,-87.91518429999999,5,REPORTS,Assignment Completed
1211623,2018-05-01 02:23:03,"W HOWARD AV / S 22ND ST,MKE",42.9738303,-88.0087302,6,BATTERY,City Citation(s) Issued
1211600,2018-05-01 02:23:07,"1609 E NORTH AV,MKE",43.0598103,-87.8900283,1,BUSINESS CHECK,Assignment Completed
1211632,2018-05-01 02:24:53,"3405 N 10TH ST,MKE",43.0803448,-87.92388539999999,5,TRBL W/SUBJ,Advised
1211598,2018-05-01 02:24:05,"1901 S 35TH ST,MKE",43.009994,-87.95807099999999,2,BUSINESS CHECK,Assignment Completed
1211614,2018-05-01 02:25:50,"N 28TH ST / W ATKINSON AV,MKE",43.0980248,-87.94802720000001,5,INJ PERSON/SICK,Assignment Completed
1211597,2018-05-01 02:24:39,"605 S 1ST ST,MKE",43.0250992,-87.9115274,2,BUSINESS CHECK,Assignment Completed
1211616,2018-05-01 02:25:01,"2333 N 49TH ST,MKE",43.0613891,-87.97516410000001,3,REPORTS,To be Filed
1211612,2018-05-01 02:29:06,"W MARTIN DR / W HIGHLAND BL,MKE",43.0446151,-87.9618823,3,ENTRY AUTOS,Service in Progress
1211658,2018-05-01 02:36:29,"1336 N 44TH ST,MKE",43.04828699999999,-87.96883,3,NOISE NUISANCE,Advised
1211640,2018-05-01 02:31:12,"S 30TH ST / W SCOTT ST,MKE",43.01904529999999,-87.95148999999999,2,FIGHT,City Citation(s) Issued
1211630,2018-05-01 02:29:20,"1445 S 32ND ST,MKE",43.0156911,-87.95450389999999,2,BUSINESS CHECK,Assignment Completed
1211622,2018-05-01 02:30:33,"5200 N LOVERS LANE RD,MKE",43.1122626,-88.0556156,4,INVESTIGATION,Assignment Completed
1211636,2018-05-01 02:44:07,"2920 N 4TH ST,MKE",43.0716492,-87.91518429999999,5,BATTERY,Service in Progress
1211661,2018-05-01 02:32:54,"405 N 27TH ST,MKE",43.0348058,-87.94780829999999,3,ABAND/STOLEN PRO,To be Filed
1211619,2018-05-01 02:33:45,"S 2ND ST / W NATIONAL AV,MKE",43.0232199,-87.91262979999999,2,PATROL,Assignment Completed
1211618,2018-05-01 02:34:23,"6929 W SILVER SPRING DR,MKE",43.1188947,-87.9982818,4,CITIZEN CONVEY,Service in Progress
1211654,2018-05-01 02:36:46,"2012 S 28TH ST,MKE",43.008214,-87.94893119999999,2,FOLLOW UP,Assignment Completed
1211627,2018-05-01 02:38:21,"1614 E NORTH AV,MKE",43.060374,-87.88976,1,BUSINESS CHECK,Assignment Completed
1211679,2018-05-01 02:42:35,"514 N 30TH ST,MKE",43.0365579,-87.9513048,3,SUBJ W/WEAPON-DV,Assignment Completed
1211638,2018-05-01 02:42:47,"6929 W SILVER SPRING DR,MKE",43.1188947,-87.9982818,4,REPORTS,Advised
1211637,2018-05-01 02:43:37,"N WEIL ST / E NORTH AV,MKE",43.0720025,-87.8990981,5,TRAFFIC STOP,Advised
1211635,2018-05-01 02:44:58,"3927 W VILLARD AV,MKE",43.11162210000001,-87.9622334,7,SUBJ STOP,Advised
1211648,2018-05-01 02:46:02,"3051 N 22ND ST,MKE",43.07442169999999,-87.94008629999999,5,TRAFFIC STOP,Advised
1211678,2018-05-01 02:46:10,"245 W LINCOLN AV,MKE",43.0024358,-87.9136371,2,RETURN STATION,Assignment Completed
1211646,2018-05-01 02:46:13,"3927 W VILLARD AV,MKE",43.11162210000001,-87.9622334,7,SUBJ STOP,Advised
1211657,2018-05-01 02:48:06,"2488 S 18TH ST,MKE",42.9993266,-87.9354459,2,SHOTSPOTTER,Unable to Locate Complainant
1211645,2018-05-01 02:47:10,"605 S 1ST ST,MKE",43.0250992,-87.9115274,2,BUSINESS CHECK,Assignment Completed
1211643,2018-05-01 02:49:49,"2646 N 50TH ST,MKE",43.067182,-87.97585199999999,3,SHOTSPOTTER,Unable to Locate Complainant
1211682,2018-05-01 03:24:14,"3006 S 27TH ST,MKE",42.990477,-87.9475489,6,ALTERED CURRENCY,Service in Progress
1211653,2018-05-01 02:53:07,"124 W WASHINGTON ST,MKE",43.0203442,-87.9119506,2,BUSINESS CHECK,Assignment Completed
1211698,2018-05-01 02:53:09,"6000 W OKLAHOMA AV,MKE",42.9884817,-87.98786750000001,6,PATROL,Assignment Completed
1211651,2018-05-01 02:53:20,"9330 W CAPITOL DR,MKE",43.089878,-88.0299373,7,BUSINESS CHECK,Assignment Completed
1211656,2018-05-01 02:55:33,"8220 W HAMPTON AV,MKE",43.1051836,-88.0141029,7,BUSINESS CHECK,Assignment Completed
1211689,2018-05-01 03:14:00,"2140 N 44TH ST,MKE",43.0581364,-87.9684247,3,CALL FOR POLICE,Unable to Locate Complainant
1211655,2018-05-01 02:59:58,"1500 W LAPHAM BL,MKE",43.0143131,-87.93075429999999,2,PATROL,Assignment Completed
1211660,2018-05-01 03:00:10,"6113 W CAPITOL DR,MKE",43.0897402,-87.9887112,7,BUSINESS CHECK,Assignment Completed
1211666,2018-05-01 03:06:08,"N 60TH ST / W VLIET ST,MKE",43.11208329999999,-87.9862474,3,SUSP PERS/AUTO,Advised
1211672,2018-05-01 03:03:56,"505 E CAPITOL DR,MKE",43.088805,-87.90388399999999,5,BUSINESS CHECK,Assignment Completed
1211667,2018-05-01 03:06:07,"N 47TH ST / W VILLARD AV,MKE",43.1119397,-87.9713641,7,BATTERY CUTTING,Unable to Locate Complainant
1211677,2018-05-01 03:07:10,"5300 N 50TH ST,MKE",43.113836,-87.97507689999999,4,SPECIAL ASSIGN,Assignment Completed
1211664,2018-05-01 03:07:20,"3006 S 27TH ST,MKE",42.990477,-87.9475489,6,RETURN STATION,Assignment Completed
1211663,2018-05-01 03:09:41,"1900 N FARWELL AV,MKE",43.05522759999999,-87.89018279999999,1,PATROL,Assignment Completed
1211676,2018-05-01 03:11:52,"4300 W SILVER SPRING DR,MKE",43.1193703,-87.96627629999999,4,TRAFFIC STOP,City Citation(s) Issued
1211697,2018-05-01 03:12:52,"5233 N 38TH ST,MKE",43.112664,-87.960404,4,ENTRY,Assignment Completed
1211669,2018-05-01 03:13:58,"1901 S 35TH ST,MKE",43.009994,-87.95807099999999,2,THEFT VEHICLE,Unable to Locate Complainant
1211675,2018-05-01 03:15:47,"1982 N PROSPECT AV,MKE",43.0560352,-87.8875254,1,TRAFFIC STOP,Advised
1211706,2018-05-01 03:16:15,"3626 W FOND DU LAC AV,MKE",43.0766866,-87.95881700000001,7,CONVEY PROPERTY,Assignment Completed
1211673,2018-05-01 03:16:17,"2333 N 49TH ST,MKE",43.0613891,-87.97516410000001,3,WELFARE CITIZEN,Assignment Completed
1211683,2018-05-01 03:22:57,"2966 N HACKETT AV,MKE",43.0724313,-87.8765796,1,BATTERY DV,Service in Progress
1211681,2018-05-01 03:24:18,"N 76TH ST / W APPLETON AV,MKE",43.0928686,-88.0076417,7,NON PURSUIT NO P,Assignment Completed
1211688,2018-05-01 03:24:28,"4200 N 27TH ST,MKE",43.0930123,-87.9466176,5,PATROL,Assignment Completed
1211696,2018-05-01 03:26:12,"3700 S 27TH ST,MKE",42.9777569,-87.9470188,6,PATROL,Assignment Completed
1211695,2018-05-01 03:27:08,"600 W LAYTON AV,MKE",42.9592752,-87.91954899999999,6,PATROL,Assignment Completed
1211685,2018-05-01 03:27:43,"2312 W CAPITOL DR,MKE",43.0898718,-87.9413786,5,TRAFFIC STOP,Advised
1211684,2018-05-01 03:29:10,200 N 35TH ST,39.9588503,-75.19276049999999,3,BUSINESS CHECK,Assignment Completed
1211692,2018-05-01 03:33:40,"1607 S 8TH ST,MKE",43.0139274,-87.92164439999999,2,MEET GOVT AGENCY,Assignment Completed
1211694,2018-05-01 03:31:04,"4201 W VILLARD AV,MKE",43.1119608,-87.9650272,7,TRAFFIC STOP,Advised
1211693,2018-05-01 03:32:43,"830 S WATER ST,MKE",43.0222994,-87.9063182,2,REPORTS,Service in Progress
1211691,2018-05-01 03:33:41,"2900 W CAPITOL DR,MKE",43.0898942,-87.94993649999999,5,TRAFFIC STOP,Advised
1211726,2018-05-01 03:36:59,"5802 W MEINECKE AV,MKE",43.062757,-87.98547889999999,3,ROBBERY ARMED,Service in Progress
1211775,2018-05-01 04:50:10,"4724 W LLOYD ST,MKE",43.057388,-87.97322299999999,3,PROPERTY DAMAGE,Open Investigation
1211704,2018-05-01 03:37:23,5100 S 6TH ST,42.952009,-87.91953889999999,6,PATROL,Assignment Completed
1211703,2018-05-01 03:37:27,"3000 W CHAMBERS ST,MKE",43.073382,-87.9510255,5,PATROL,Assignment Completed
1211737,2018-05-01 03:39:00,"E BRADY ST / N FARWELL AV,MKE",43.0528105,-87.8926877,1,SUBJ STOP,Cleared by Arrest
1211701,2018-05-01 03:39:01,"9922 W CAPITOL DR,MKE",43.0899738,-88.0373608,7,BUSINESS CHECK,Assignment Completed
1211716,2018-05-01 03:52:18,"750 S 25TH ST,MKE",43.0230435,-87.9446658,2,NOTIFICATION,Advised
1211700,2018-05-01 03:39:19,"3831 N 27TH ST,MKE",43.08688679999999,-87.9474054,5,TRAFFIC STOP,Advised
1211699,2018-05-01 03:39:32,"4600 S 1ST ST,MKE",42.9609438,-87.9108591,6,PATROL,Assignment Completed
1211709,2018-05-01 03:41:53,"3626 W FOND DU LAC AV,MKE",43.0766866,-87.95881700000001,7,CONVEY PROPERTY,Assignment Completed
1211717,2018-05-01 03:42:26,"6680 N TEUTONIA AV,MKE",43.1387543,-87.9529318,4,POLICE ACADEMY,Assignment Completed
1211722,2018-05-01 03:55:49,"2707 N 54TH ST,MKE",43.0681594,-87.9812133,7,RECK USE OF W-DV,Service in Progress
1211707,2018-05-01 03:44:59,"6600 W MELVINA ST,MKE",43.0887106,-87.99483099999999,7,BUSINESS CHECK,Assignment Completed
1211712,2018-05-01 03:45:35,"4803 N GREEN BAY AV,MKE",43.104643,-87.931906,7,BUSINESS CHECK,Assignment Completed
1211711,2018-05-01 03:48:58,"8811 W DEAN RD,MKE",43.16910499999999,-88.020803,4,SPECIAL ASSIGN,Assignment Completed
1211710,2018-05-01 03:49:59,"100 W LAYTON AV,MKE",42.9592521,-87.9097876,6,TS TARGETED,Advised
1211747,2018-05-01 03:52:51,"2920 N 4TH ST,MKE",43.0716492,-87.91518429999999,5,PRISONER TRANS,Assignment Completed
1211714,2018-05-01 03:53:44,"7550 W PERKINS PL,MKE",43.0914486,-88.00661869999999,7,BUSINESS CHECK,Assignment Completed
1211724,2018-05-01 03:53:58,"3869 S 84TH ST,MKE",42.9740172,-88.01820529999999,6,BUSINESS CHECK,Assignment Completed
1211723,2018-05-01 03:55:24,"6680 N TEUTONIA AV,MKE",43.1387543,-87.9529318,4,RETURN STATION,Assignment Completed
1211721,2018-05-01 03:57:36,"110 E LAYTON AV,MKE",42.9594561,-87.9090203,6,BUSINESS CHECK,Advised
1211720,2018-05-01 03:58:14,"4600-BLK N 39TH ST,MKE",43.100889,-87.9612439,7,INVESTIGATION,Service in Progress
1211719,2018-05-01 03:59:09,"2900-BLK N 26TH ST,MKE",43.0715429,-87.9460898,5,INJ PERSON/SICK,Advised
1211732,2018-05-01 03:59:47,"11800 W SILVER SPRING DR,MKE",43.1174796,-88.0598782,4,BUSINESS CHECK,Assignment Completed
1211729,2018-05-01 04:03:36,"4365 N 35TH ST,MKE",43.0968329,-87.9581199,7,SHOTSPOTTER,Unable to Locate Complainant
1211730,2018-05-01 04:03:30,"550 N HARBOR DR,MKE",43.0377081,-87.895225,1,BUSINESS CHECK,Assignment Completed
1211746,2018-05-01 04:10:55,"2821 N 4TH ST,MKE",43.0701462,-87.916146,5,CALL FOR POLICE,Unable to Locate Complainant
1211743,2018-05-01 04:04:36,"900 N LINCOLN MEMORIAL DR,MKE",43.0509525,-87.89014379999999,1,PARK AND WALK,Assignment Completed
1211783,2018-05-01 04:04:42,"2850 N 28TH ST,MKE",43.0708556,-87.94833609999999,5,NETWORK CRIMINAL,Assignment Completed
1211735,2018-05-01 04:11:08,"3100 N 20TH ST,MKE",43.0751167,-87.9373622,5,TRAFFIC STOP,Advised
1211734,2018-05-01 04:11:50,"W GREEN TREE RD / N TEUTONIA AV,MKE",43.1412559,-87.95840439999999,4,PATROL,Assignment Completed
1211741,2018-05-01 04:16:15,"4757 N 21ST ST,MKE",43.1038294,-87.93836309999999,7,STOLEN VEHICLE,Service in Progress
1211777,2018-05-01 04:59:44,"731 N 25TH ST,MKE",43.0393914,-87.9453896,3,TRBL W/SUBJ,Unable to Locate Complainant
1211733,2018-05-01 04:13:18,"8557 N 91ST ST,MKE",43.1732775,-88.02559930000001,4,TRAFFIC STOP,Advised
1211742,2018-05-01 04:15:32,"7602 W OKLAHOMA AV,WA",40.9130679,-98.34648,OUT,TRAFFIC STOP,Advised
1211759,2018-05-01 04:28:01,"N 39TH ST / W LANCASTER AV,MKE",43.1098357,-87.9614319,7,RECKLESS VEHICLE,Unable to Locate Complainant
1211740,2018-05-01 04:17:56,"2850 W BURLEIGH ST,MKE",43.075349,-87.9493226,5,TRAFFIC STOP,Advised
1211770,2018-05-01 04:18:13,"749 W STATE ST,MKE",43.0426483,-87.9212718,1,FOLLOW UP,Assignment Completed
1211760,2018-05-01 04:18:47,"4300 S HOWELL AV,MKE",42.96633569999999,-87.90931169999999,6,PATROL,Assignment Completed
1211745,2018-05-01 04:20:15,"9120 W CAPITOL DR,MKE",43.0899915,-88.0272136,7,BUSINESS CHECK,Assignment Completed
1211744,2018-05-01 04:23:47,"3305 W BURNHAM ST,MKE",43.010056,-87.95550999999999,2,BUSINESS CHECK,Assignment Completed
1211752,2018-05-01 04:25:56,"2434 W NATIONAL AV,MKE",43.0227666,-87.944777,2,BUSINESS CHECK,Assignment Completed
1211757,2018-05-01 04:30:13,"N 91ST ST / W FLAGG AV,MKE",43.1245923,-88.0256273,4,CALL FOR POLICE,Advised
1211750,2018-05-01 04:28:32,"11800 W SILVER SPRING DR,MKE",43.1174796,-88.0598782,4,BUSINESS CHECK,Assignment Completed
1211758,2018-05-01 04:28:38,"2000 W LAYTON AV,MKE",42.9594014,-87.9390066,6,PATROL,Assignment Completed
1211748,2018-05-01 04:28:42,"1940 N 27TH ST,MKE",43.0558252,-87.94728479999999,3,TRAFFIC STOP,Advised
1211756,2018-05-01 04:31:43,"7311 W CAPITOL DR,MKE",43.0895176,-88.00320219999999,7,BUSINESS CHECK,Assignment Completed
1211755,2018-05-01 04:31:52,"6325 N 76TH ST,MKE",43.1329207,-88.0064563,4,BUSINESS CHECK,Assignment Completed
1211754,2018-05-01 04:33:04,"6400 N TEUTONIA AV,MKE",43.13463429999999,-87.9533101,4,PATROL,Assignment Completed
1211782,2018-05-01 04:34:30,"6929 W SILVER SPRING DR,MKE",43.1188947,-87.9982818,4,CONVEY PROPERTY,Assignment Completed
1211766,2018-05-01 04:42:28,"524 W HADLEY ST,MKE",43.069638,-87.9177969,5,TRBL W/SUBJ,Unable to Locate Complainant
1211764,2018-05-01 04:36:44,"3700 N SHERMAN BL,MKE",43.0843505,-87.9670946,7,BUS INVESTIGATIO,Assignment Completed
1211763,2018-05-01 04:37:02,"8900 N 107TH ST,MKE",43.1799717,-88.0440268,4,SPECIAL ASSIGN,Assignment Completed
1211762,2018-05-01 04:37:11,"8100 W CARMEN AV,MKE",43.1232153,-88.0121427,4,PATROL,Assignment Completed
1211769,2018-05-01 04:37:15,"501 W EDGERTON AV,MKE",42.9514942,-87.91658729999999,6,BUSINESS CHECK,Assignment Completed
1211814,2018-05-01 05:27:52,"2207 S 11TH ST,MKE",43.0043885,-87.9261071,2,PROPERTY DAMAGE,Service in Progress
1211792,2018-05-01 04:45:09,"S 9TH PL / W MONTANA ST,MKE",42.9936625,-87.9238114,6,WELFARE CITIZEN,Assignment Completed
1211768,2018-05-01 04:41:44,"6300 W BURLEIGH ST,MKE",43.07537019999999,-87.9916961,7,TRAFFIC STOP,Advised
1211767,2018-05-01 04:42:24,"W SILVER SPRING DR / N 60TH ST,MKE",43.1225384,-87.98608290000001,4,PATROL,Assignment Completed
1211765,2018-05-01 04:43:29,"5000 W CHAMBERS ST,MKE",43.0743635,-87.97653720000001,7,CITIZEN CONVEY,Assignment Completed
1211791,2018-05-01 04:45:33,"2007 W CAPITOL DR,MKE",43.089343,-87.937528,5,TRBL W/SUBJ,Advised
1211772,2018-05-01 04:45:37,"4100 N HUMBOLDT BL,MKE",43.09188,-87.9010364,5,PARK AND WALK,Assignment Completed
1211797,2018-05-01 05:05:34,"2220 W CHERRY ST,MKE",43.0501476,-87.94101909999999,3,TRBL W/SUBJ,Unable to Locate Complainant
1211771,2018-05-01 04:49:22,"2746 N RICHARDS ST,MKE",43.0685232,-87.9074583,5,TRAFFIC STOP,Advised
1211776,2018-05-01 04:50:10,"749 W STATE ST,MKE",43.0426483,-87.9212718,1,REPORTS,Service in Progress
1211781,2018-05-01 04:56:00,"6330 W SILVER SPRING DR,MKE",43.1197039,-87.9908085,4,BUSINESS CHECK,Assignment Completed
1211790,2018-05-01 04:56:02,"11600 W PARK PL,MKE",43.1547609,-88.0551042,4,BUSINESS CHECK,Assignment Completed
1211779,2018-05-01 04:57:38,"N 60TH ST / W MILL RD,MKE",43.11208329999999,-87.9862474,4,PATROL,Assignment Completed
1211778,2018-05-01 04:58:53,"8326 W HOLT AV,MKE",42.9829681,-88.0172671,6,CITIZEN CONTACT,Advised
1211803,2018-05-01 05:00:35,"9025 W LAWRENCE AV,MKE",43.0976886,-88.0253791,7,BUSINESS CHECK,Assignment Completed
1211788,2018-05-01 05:01:18,"9700 W GRANTOSA DR,MKE",43.0963228,-88.0347405,7,BUSINESS CHECK,Assignment Completed
1211787,2018-05-01 05:02:22,"S 60TH ST / W WARNIMONT AV,MKE",42.9792607,-87.9878226,6,TRAFFIC HAZARD,Advised/Referral
1211833,2018-05-01 05:05:09,"6414 N 87TH ST,MKE",43.1346559,-88.0192253,4,WELFARE CITIZEN,Advised
1211802,2018-05-01 05:03:02,"5100 W SILVER SPRING DR,MKE",43.11941239999999,-87.97622980000001,4,SPECIAL ASSIGN,Assignment Completed
1211785,2018-05-01 05:03:08,"1400 E BRADY ST,MKE",43.0531544,-87.8934292,1,BUSINESS CHECK,Assignment Completed
1211821,2018-05-01 05:04:18,"5771 N 68TH ST,MKE",43.1228979,-87.9963374,4,PATROL,Assignment Completed
1211801,2018-05-01 05:05:45,"4901 S HOWELL AV,MKE",42.95577,-87.91080699999999,6,TS TARGETED,Advised
1211795,2018-05-01 05:06:40,"6800 W SILVER SPRING DR,MKE",43.1195641,-87.9959721,4,TRAFFIC STOP,Advised
1211794,2018-05-01 05:06:51,"3626 W FOND DU LAC AV,MKE",43.0766866,-87.95881700000001,7,FOLLOW UP,Assignment Completed
1211793,2018-05-01 05:09:26,"2920 N 4TH ST,MKE",43.0716492,-87.91518429999999,5,REPORTS,Service in Progress
1211840,2018-05-01 05:13:41,"2920 N 4TH ST,MKE",43.0716492,-87.91518429999999,5,POLICE ADMIN,Assignment Completed
1211807,2018-05-01 05:14:39,"2333 N 49TH ST,MKE",43.0613891,-87.97516410000001,3,RETURN STATION,Assignment Completed
1211806,2018-05-01 05:18:44,"910 S 17TH ST,MKE",43.0217575,-87.9339973,2,FIRE,Assignment Completed
1211820,2018-05-01 05:18:52,"2900 S 35TH ST,MKE",42.9920119,-87.9576977,6,PATROL,Assignment Completed
1211804,2018-05-01 05:19:48,"1526 N 17TH ST,MKE",43.0505158,-87.9334302,3,TRAFFIC STOP,Advised
1211812,2018-05-01 05:20:28,"N JACKSON ST / E MASON ST,MKE",43.0401243,-87.9041498,1,TRAFFIC STOP,Advised
1211819,2018-05-01 05:21:03,"6900 W FLORIST AV,MKE",43.12792899999999,-87.997638,4,TRAFFIC STOP,Advised
1211818,2018-05-01 05:21:19,"1000 N LINCOLN MEMORIAL DR,MKE",43.05096169999999,-87.8901368,1,PATROL,Assignment Completed
1211832,2018-05-01 05:22:37,"3640 S 27TH ST,MKE",42.97843,-87.9482317,6,TRAFFIC LASER,Assignment Completed
1211831,2018-05-01 05:23:10,"6680 N TEUTONIA AV,MKE",43.1387543,-87.9529318,4,RETURN STATION,Assignment Completed
1211830,2018-05-01 05:27:02,"8830 W HAMPTON AV,MKE",43.105283,-88.023138,7,SUSP PERS/AUTO,Advised/Referral
1211817,2018-05-01 05:25:06,"N 60TH ST / W GOOD HOPE RD,MKE",43.1481787,-87.9853794,4,PATROL,Assignment Completed
1211816,2018-05-01 05:25:47,"9210 W LISBON AV,MKE",43.0860693,-88.0282837,7,BUSINESS CHECK,Assignment Completed
1211826,2018-05-01 05:32:37,"N 29TH ST / W WELLS ST,MKE",43.0402815,-87.9507106,3,SUSP PERS/AUTO,Unable to Locate Complainant
1211813,2018-05-01 05:29:24,"2333 N 49TH ST,MKE",43.0613891,-87.97516410000001,3,RETURN STATION,Assignment Completed
1211829,2018-05-01 05:30:42,"2950 S CHASE AV,MKE",42.9916192,-87.90742949999999,6,PATROL,Assignment Completed
1211839,2018-05-01 05:31:11,"2000 N LINCOLN MEMORIAL DR,MKE",43.051932,-87.88310299999999,1,TRAFFIC LASER,Assignment Completed
1211842,2018-05-01 05:46:47,"2508 W GARFIELD AV,MKE",43.0593868,-87.9454066,3,STOLEN VEHICLE,To be Filed
1211827,2018-05-01 05:32:21,"6929 W SILVER SPRING DR,MKE",43.1188947,-87.9982818,4,RETURN STATION,Assignment Completed
1211864,2018-05-01 05:33:24,"6929 W SILVER SPRING DR,MKE",43.1188947,-87.9982818,4,POLICE ADMIN,Assignment Completed
1211862,2018-05-01 06:06:47,"2211 N 25TH ST,MKE",43.0595411,-87.9452801,3,STOLEN VEHICLE,Service in Progress
1211872,2018-05-01 05:35:00,"524 W HADLEY ST,MKE",43.069638,-87.9177969,5,TRBL W/SUBJ,City Citation(s) Issued
1211824,2018-05-01 05:33:56,"6929 W SILVER SPRING DR,MKE",43.1188947,-87.9982818,4,RETURN STATION,Assignment Completed
1211835,2018-05-01 05:34:33,"5300 S HOWELL AV,MKE",42.9475534,-87.89664599999999,6,PATROL,Assignment Completed
1211853,2018-05-01 05:38:04,"1327 S 20TH ST,MKE",43.0174701,-87.9382572,2,ABAND/STOLEN PRO,Assignment Completed
1211837,2018-05-01 05:41:05,"5300 W NASH ST,MKE",43.08441210000001,-87.9795972,7,BUSINESS CHECK,Assignment Completed
1211852,2018-05-01 05:42:45,"8805 W HUSTIS CT,MKE",43.145467,-88.0216908,4,FOLLOW UP,Assignment Completed
1211844,2018-05-01 05:45:07,"3600 S 27TH ST,MKE",42.978991,-87.946884,6,TRAFFIC STOP,City Citation(s) Issued
1211894,2018-05-01 05:45:40,"2920 N 4TH ST,MKE",43.0716492,-87.91518429999999,5,SPECIAL ASSIGN,Assignment Completed
1211841,2018-05-01 05:47:24,"4111 S 6TH ST,MKE",42.9698419,-87.9198246,6,BUSINESS CHECK,Assignment Completed
1211906,2018-05-01 05:51:46,"1206 W CLEVELAND AV,MKE",42.9957228,-87.9280407,2,WELFARE CITIZEN,Advised
1211851,2018-05-01 05:50:25,"245 W LINCOLN AV,MKE",43.0024358,-87.9136371,2,REPORTS,Assignment Completed
1211850,2018-05-01 05:50:31,"1900 N LINCOLN MEMORIAL DR,MKE",43.0538693,-87.88259169999999,1,TS TARGETED,Advised
1211856,2018-05-01 05:50:59,"6100 N 107TH ST,MKE",43.1288272,-88.0454553,4,PATROL,Assignment Completed
1211848,2018-05-01 05:51:04,"5600 W CAPITOL DR,MKE",43.0908297,-87.9834303,7,RETURN STATION,Assignment Completed
1211855,2018-05-01 05:52:16,"223 E ST PAUL AV,MKE",43.0348477,-87.9079036,1,TRBL W/SUBJ,Advised
1211845,2018-05-01 05:52:44,"6325 N 76TH ST,MKE",43.1329207,-88.0064563,4,BUSINESS CHECK,Assignment Completed
1211880,2018-05-01 06:02:27,"5172 N 106TH ST,MKE",43.1118595,-88.0444658,4,TRBL W/SUBJ,Advised
1211863,2018-05-01 05:59:16,"6414 N 76TH ST,MKE",43.1347595,-88.0052319,4,SPECIAL ASSIGN,Assignment Completed
1211859,2018-05-01 06:02:06,"3006 S 27TH ST,MKE",42.990477,-87.9475489,6,RETURN STATION,Assignment Completed
1211916,2018-05-01 06:03:26,"6929 W SILVER SPRING DR,MKE",43.1188947,-87.9982818,4,REPORTS,To be Filed
1211883,2018-05-01 06:24:11,"1310 S 25TH ST,MKE",43.0177534,-87.9448214,2,THEFT VEHICLE,Service in Progress
1211861,2018-05-01 06:07:34,2400 S 35TH ST,35.505614,-97.55447699999999,2,TRAFFIC LASER,Service in Progress
1211860,2018-05-01 06:08:38,"3233 E KENWOOD BL,MKE",43.0721669,-87.86988559999999,1,WELFARE CITIZEN,Advised
1211871,2018-05-01 06:10:51,"5600 S 20TH ST,MKE",42.9429594,-87.9391686,6,PATROL,Assignment Completed
1211879,2018-05-01 06:10:54,"6901 W VIENNA AV,MKE",43.0854914,-87.99570829999999,7,PARK AND WALK,Assignment Completed
1211869,2018-05-01 06:10:58,"3000 W CAPITOL DR,MKE",43.090046,-87.95077479999999,5,PARK AND WALK,Assignment Completed
1211868,2018-05-01 06:11:36,"2254 S 35TH ST,MKE",43.00357,-87.957533,2,TRAFFIC STOP,City Citation(s) Issued
1211867,2018-05-01 06:12:00,"2000 W HAMPTON AV,MKE",43.1046607,-87.9371951,7,BUS INVESTIGATIO,Assignment Completed
1211866,2018-05-01 06:12:04,"3626 W FOND DU LAC AV,MKE",43.0766866,-87.95881700000001,7,FOLLOW UP,To be Filed
1211887,2018-05-01 06:13:14,2800 S SHORE DR,34.3953374,-77.59001839999999,6,PARK AND WALK,Assignment Completed
1211875,2018-05-01 06:16:51,"N 63RD ST / W CENTER ST,MKE",43.0679033,-87.98945359999999,7,SUSP PERS/AUTO,Unable to Locate Complainant
1211878,2018-05-01 06:15:26,"9208 W CAPITOL DR,MKE",43.090016,-88.028183,7,BUSINESS CHECK,Assignment Completed
1211877,2018-05-01 06:15:28,"7110 W BURLEIGH ST,MKE",43.0754407,-88.00114040000001,7,BUSINESS CHECK,Assignment Completed
1211876,2018-05-01 06:16:01,"1800 N COMMERCE ST,MKE",43.0532,-87.90829579999999,5,PATROL,Assignment Completed
1211893,2018-05-01 06:18:37,"6366 N 76TH ST,MKE",43.1337858,-88.0052274,4,BUSINESS CHECK,Assignment Completed
1211873,2018-05-01 06:19:37,"N 60TH ST / W CONGRESS ST,MKE",43.11208329999999,-87.9862474,7,BUS INVESTIGATIO,Assignment Completed
1211886,2018-05-01 06:20:59,"4060 W CENTER ST,MKE",43.0680953,-87.96431129999999,7,BUSINESS CHECK,Assignment Completed
1211892,2018-05-01 06:22:21,"5408 W VLIET ST,MKE",43.0496064,-87.981462,3,ENTRY AUTOS,To be Filed
1211905,2018-05-01 06:22:27,"6929 W SILVER SPRING DR,MKE",43.1188947,-87.9982818,4,RETURN STATION,Assignment Completed
1211889,2018-05-01 06:28:27,"5115 W CAPITOL DR,MKE",43.0895892,-87.97796129999999,7,INJ PERSON/SICK,Assignment Completed
1211891,2018-05-01 06:24:30,"3006 S 27TH ST,MKE",42.69006479999999,-73.8347615,6,REPORTS,To be Filed
1211904,2018-05-01 06:24:57,"3006 S 27TH ST,MKE",42.69006479999999,-73.8347615,6,RETURN STATION,Assignment Completed
1211890,2018-05-01 06:27:16,"6929 W SILVER SPRING DR,MKE",43.1188947,-87.9982818,4,FOLLOW UP,To be Filed
1211931,2018-05-01 06:29:22,"8880 W SURA LN, GREENFIELD",42.960316,-88.02320399999999,1,FOLLOW UP,Assignment Completed
1211903,2018-05-01 06:30:09,"2254 S 35TH ST,MKE",43.00357,-87.957533,2,TRAFFIC STOP,Service in Progress
1211911,2018-05-01 06:31:16,"6929 W SILVER SPRING DR,MKE",43.1188947,-87.9982818,4,REPORTS,To be Filed
1211901,2018-05-01 06:31:25,"3006 S 27TH ST,MKE",42.990477,-87.9475489,6,RETURN STATION,Assignment Completed
1211899,2018-05-01 06:33:08,"749 W STATE ST,MKE",43.0426483,-87.9212718,1,MED RUN,Service in Progress
1211896,2018-05-01 06:34:18,"749 W STATE ST,MKE",43.0426483,-87.9212718,1,MED RUN,Service in Progress
1211900,2018-05-01 06:32:27,"6442 N 76TH ST,MKE",43.1355106,-88.0050337,4,BUSINESS CHECK,Assignment Completed
1211898,2018-05-01 06:33:21,"7101 W LISBON AV,MKE",43.0745343,-88.0007852,7,BUSINESS CHECK,Assignment Completed
1211897,2018-05-01 06:33:46,"1425 N FARWELL AV,MKE",43.048748,-87.89660099999999,1,BUSINESS CHECK,Assignment Completed
1211895,2018-05-01 06:34:33,"749 W STATE ST,MKE",43.0426483,-87.9212718,1,REPORTS,Assignment Completed
1211910,2018-05-01 06:35:17,"2202 S 35TH ST,MKE",43.00467800000001,-87.95750799999999,2,TRAFFIC STOP,City Citation(s) Issued
1211909,2018-05-01 06:35:49,"2326 W ST PAUL AV,MKE",43.0351398,-87.9430539,3,ASSIGNMENT,Service in Progress
1211908,2018-05-01 06:36:51,"7550 W APPLETON AV,MKE",43.0930759,-88.0059112,7,BUSINESS CHECK,Assignment Completed
1211978,2018-05-01 06:39:10,"7800 N 64TH CT,MKE",43.1612287,-87.98949089999999,4,ENTRY AUTOS,To be Filed
1211980,2018-05-01 06:41:54,"3558 N 19TH ST,MKE",43.0830561,-87.9344029,5,CALL FOR POLICE,Advised
1211915,2018-05-01 06:40:07,"4301 W HAMPTON AV,MKE",43.1045619,-87.9666484,7,BUS INVESTIGATIO,Assignment Completed
1211914,2018-05-01 06:41:27,"10700 W SILVER SPRING DR,MKE",43.12047,-88.047274,4,BUS INVESTIGATIO,Assignment Completed
1211921,2018-05-01 06:46:15,"N 35TH ST / W WISCONSIN AV,MKE",43.038581,-87.9576024,3,CALL FOR POLICE,Unable to Locate Complainant
1211958,2018-05-01 06:50:21,"2838 N 29TH ST,MKE",43.0705502,-87.9494892,5,TRBL W/JUV,Advised
1211912,2018-05-01 06:44:55,"5020 W FOND DU LAC AV,MKE",43.0903347,-87.9762757,7,BUSINESS CHECK,Assignment Completed
1211940,2018-05-01 06:45:36,"4040 S 27TH ST,MKE",42.9712194,-87.9477498,6,TRAFFIC LASER,Assignment Completed
1211977,2018-05-01 06:51:28,"2920 N 4TH ST,MKE",43.0716492,-87.91518429999999,5,ROBBERY ARMED,Assignment Completed
1211920,2018-05-01 06:48:00,"9100 W SILVER SPRING DR,MKE",43.1195816,-88.02600009999999,4,BUS INVESTIGATIO,Assignment Completed
1211919,2018-05-01 06:48:55,"2333 N 49TH ST,MKE",43.0613891,-87.97516410000001,3,OUT OF SERVICE,Assignment Completed
1211973,2018-05-01 06:53:18,"6039 N 63RD ST,MKE",43.1276337,-87.9897108,4,BB GUN COMPLNT,To be Filed
1211917,2018-05-01 06:49:33,"N MILWAUKEE ST / E OGDEN AV,MKE",43.048448,-87.905506,1,PATROL,Service in Progress
1211918,2018-05-01 06:49:33,"749 W STATE ST,MKE",43.0426483,-87.9212718,1,OUT OF SERVICE,Assignment Completed
1211930,2018-05-01 06:50:08,"7400 W SILVER SPRING DR,MKE",43.1199129,-88.00362299999999,4,BUS INVESTIGATIO,Assignment Completed
1212028,2018-05-01 07:19:33,"2818 W MICHIGAN ST,MKE",43.0376704,-87.9498883,3,PROPERTY DAMAGE,To be Filed
1211928,2018-05-01 06:51:18,"2920 N 4TH ST,MKE",43.0716492,-87.91518429999999,5,REPORTS,Assignment Completed
1211926,2018-05-01 06:51:48,"N 76TH ST / W MILL RD,MKE",43.1351582,-88.00626989999999,4,BUS INVESTIGATIO,Assignment Completed
1211925,2018-05-01 06:51:49,"3626 W FOND DU LAC AV,MKE",43.0766866,-87.95881700000001,7,OUT OF SERVICE,Assignment Completed
1211924,2018-05-01 06:53:11,"2110 E OKLAHOMA AV,MKE",42.98842459999999,-87.8833363,6,BUSINESS CHECK,Assignment Completed
1211939,2018-05-01 06:55:05,"6800 W SILVER SPRING DR,MKE",43.1195641,-87.9959721,4,BUS INVESTIGATIO,Assignment Completed
1211938,2018-05-01 06:55:07,"6929 W SILVER SPRING DR,MKE",43.1188947,-87.9982818,4,ACC PDO,Service in Progress
1211937,2018-05-01 06:56:11,"6000 W SILVER SPRING DR,MKE",43.1199825,-87.986639,4,BUS INVESTIGATIO,Assignment Completed
1211933,2018-05-01 06:59:35,"E JUNEAU AV / N MARSHALL ST,MKE",43.0439691,-87.9008218,1,ACC PDO,To be Filed
1211936,2018-05-01 06:57:51,"6000 W MILL RD,MKE",43.1340106,-87.9860614,4,BUS INVESTIGATIO,Assignment Completed
1211935,2018-05-01 06:58:23,"2254 S 35TH ST,MKE",43.00357,-87.957533,2,TRAFFIC STOP,City Citation(s) Issued
1211934,2018-05-01 06:59:19,"1425 N FARWELL AV,MKE",43.048748,-87.89660099999999,1,THEFT,City Citation(s) Issued
1212005,2018-05-01 07:50:08,"454 N 39TH ST,MKE",43.0360534,-87.9623865,3,ENTRY AUTOS,Advised
1211932,2018-05-01 06:59:46,"N 76TH ST / W MILL RD,MKE",43.1351582,-88.00626989999999,4,BUS INVESTIGATIO,Assignment Completed
1211943,2018-05-01 07:00:48,"6401 N 76TH ST,MKE",43.1345836,-88.0063034,4,BUSINESS CHECK,Assignment Completed
1212023,2018-05-01 08:06:06,"502 N 39TH ST,MKE",43.03633749999999,-87.96236739999999,3,ENTRY AUTOS,Advised
1211942,2018-05-01 07:01:12,"8200 W MILL RD,MKE",43.134511,-88.013307,4,BUS INVESTIGATIO,Assignment Completed
1212013,2018-05-01 07:15:18,"7240 W WABASH AV,MKE",43.175463,-88.00074599999999,4,BB GUN COMPLNT,To be Filed
1211941,2018-05-01 07:03:47,"4715 W VLIET ST,MKE",43.0484157,-87.9730637,3,REPORTS,To be Filed
1211971,2018-05-01 07:08:38,"7901 W GLENBROOK RD,MKE",43.1880697,-88.0077945,4,TRBL W/SUBJ,Assignment Completed
1212126,2018-05-01 09:21:12,"1435 S 31ST ST,MKE",43.0161469,-87.9528811,2,ENTRY AUTOS,Advised
1211993,2018-05-01 07:06:04,"6933 W GRANTOSA DR,MKE",43.11434,-87.99835,4,FOLLOW UP,To be Filed
1211950,2018-05-01 07:07:16,"805 E MASON ST,MKE",43.04027,-87.9010545,1,SPECIAL ASSIGN,Service in Progress
1212014,2018-05-01 07:12:21,"2528 W WELLS ST,MKE",43.0404799,-87.9459092,3,LOOSE ANIMAL,Advised
1211947,2018-05-01 07:09:17,"2134 S 19TH ST,MKE",43.0057913,-87.9365632,2,INJ PERSON/SICK,Advised
1211972,2018-05-01 07:08:19,"3950 S 27TH ST,MKE",42.9727033,-87.9476342,6,TRAFFIC STOP,City Citation(s) Issued
1211965,2018-05-01 07:15:35,"3626 W FOND DU LAC AV,MKE",43.0766866,-87.95881700000001,7,PRISONER TRANS,Service in Progress
1212022,2018-05-01 08:06:30,"2744 N 9TH LA,MKE",43.07728840000001,-87.9231401,5,TRBL W/SUBJ,Advised
1211946,2018-05-01 07:09:19,"245 W LINCOLN AV,MKE",43.0024358,-87.9136371,2,OUT OF SERVICE,Assignment Completed
1211945,2018-05-01 07:09:23,"4502 W MARTIN DR,MKE",43.0445591,-87.9704807,3,TRAFFIC STOP,Advised
1211956,2018-05-01 07:09:39,"2100 W OKLAHOMA AV,MKE",42.991392,-87.943731,6,PATROL,Assignment Completed
1211955,2018-05-01 07:10:15,"6400 W FLORIST AV,MKE",43.1267624,-87.9911844,4,PATROL,Assignment Completed
1211954,2018-05-01 07:11:19,"6001 N 60TH ST,MKE",43.12669469999999,-87.985941,4,BUSINESS CHECK,Assignment Completed
1211952,2018-05-01 07:12:28,5200 W CAPITOL DR,43.0899764,-87.9783192,7,BUS INVESTIGATIO,Assignment Completed
1211966,2018-05-01 07:15:30,"4601 N 84TH ST,MKE",43.1014384,-88.0187414,7,BUSINESS CHECK,Assignment Completed
1211969,2018-05-01 07:19:23,"N 76TH ST / W CONGRESS ST,MKE",43.0972106,-88.0071787,7,ACC PDO,Assignment Completed
1211970,2018-05-01 07:17:36,"3626 W FOND DU LAC AV,MKE",43.0766866,-87.95881700000001,7,RETURN STATION,Assignment Completed
1211963,2018-05-01 07:18:31,"375 E MONTANA ST,MKE",42.9941908,-87.9049146,6,PATROL,Assignment Completed
1211960,2018-05-01 07:19:43,"605 S 1ST ST,MKE",43.0250992,-87.9115274,2,BUSINESS CHECK,Assignment Completed
1211959,2018-05-01 07:19:52,"6309 W APPLETON AV,MKE",43.0741757,-87.9914725,7,TRAFFIC STOP,Advised
1211968,2018-05-01 07:23:39,6001 W CAPITOL DR,43.08961590000001,-87.98755,7,BUSINESS CHECK,Assignment Completed
1212034,2018-05-01 08:13:42,"414 N 34TH ST,MKE",43.0352453,-87.9562115,3,NOTIFICATION,Unable to Locate Complainant
1211976,2018-05-01 07:25:53,"3626 W FOND DU LAC AV,MKE",43.0766866,-87.95881700000001,7,VEHICLE MAINT,Assignment Completed
1211975,2018-05-01 07:26:21,"400 W LINCOLN AV,MKE",43.0037873,-87.9162304,2,TRAFFIC STOP,Assignment Completed
1211988,2018-05-01 07:35:28,"1021 S 21ST ST,MKE",43.0202149,-87.9399906,2,ACC PI,Service in Progress
1211974,2018-05-01 07:29:56,"2146 S 20TH ST,MKE",43.0055697,-87.937961,2,TRAFFIC STOP,Advised
1211996,2018-05-01 07:47:08,"5445 W CHERRY ST,MKE",43.0501175,-87.98249489999999,3,ENTRY AUTOS,Service in Progress
1211986,2018-05-01 07:36:57,"S 29TH ST / W CLEVELAND AV,MKE",42.99585990000001,-87.9506396,2,TRAFFIC HAZARD,Assignment Completed
1211979,2018-05-01 07:34:45,"E KANE PL / N FARWELL AV,MKE",43.05522759999999,-87.89018279999999,1,ACC PDO,Service in Progress
1211987,2018-05-01 07:35:53,"4715 W VLIET ST,MKE",43.0484157,-87.9730637,3,REPORTS,Service in Progress
1212355,2018-05-01 11:42:04,"3538 N 21ST ST,MKE",43.0832375,-87.93819789999999,5,STOLEN VEHICLE,Service in Progress
1211985,2018-05-01 07:37:26,DSHA,43.094604,-88.039147,7,SPECIAL ASSIGN,Service in Progress
1211984,2018-05-01 07:37:46,"749 W STATE ST,MKE",43.0426483,-87.9212718,1,RETURN STATION,Assignment Completed
1211983,2018-05-01 07:38:09,"4715 W VLIET ST,MKE",43.0484157,-87.9730637,3,ASSIGNMENT,Service in Progress
1212089,2018-05-01 08:18:00,"4657 N 30TH ST,MKE",43.1021198,-87.95076879999999,5,TRBL W/SUBJ-DV,Assignment Completed
1212517,2018-05-01 12:55:56,"1733 W GALENA ST,MKE",43.0511709,-87.93510789999999,3,PROPERTY DAMAGE,Unable to Locate Complainant
1211982,2018-05-01 07:39:17,"10700 W MILL RD,MKE",43.1338746,-88.04525579999999,4,PATROL,Assignment Completed
1212000,2018-05-01 07:39:24,"2333 N 49TH ST,MKE",43.0613891,-87.97516410000001,3,PROPERTY PICKUP,Assignment Completed
1211992,2018-05-01 07:40:49,"6680 N TEUTONIA AV,MKE",43.1387543,-87.9529318,4,RETURN STATION,Service in Progress
1211991,2018-05-01 07:41:00,"245 W LINCOLN AV,MKE",43.0024358,-87.9136371,2,OUT OF SERVICE,Assignment Completed
1212098,2018-05-01 08:02:10,"N 31ST ST / W ATKINSON AV,MKE",43.0597561,-87.95265909999999,5,TRBL W/SUBJ-DV,Advised
1212081,2018-05-01 08:43:46,"S 6TH ST / W HAYES AV,MKE",43.0018082,-87.91879089999999,2,ACC PDO,Service in Progress
1211990,2018-05-01 07:41:26,"245 W LINCOLN AV,MKE",43.0024358,-87.9136371,2,OUT OF SERVICE,Assignment Completed
1211989,2018-05-01 07:41:59,"3626 W FOND DU LAC AV,MKE",43.0766866,-87.95881700000001,7,OUT OF SERVICE,Assignment Completed
1212030,2018-05-01 08:14:54,"325 N 29TH ST,MKE",43.0342849,-87.950777,3,VIOL REST ORDER,Service in Progress
1212031,2018-05-01 08:14:33,"3439 S 26TH ST,MKE",42.98220269999999,-87.947304,6,ENTRY,Advised
1212051,2018-05-01 08:23:18,"1530 W CENTER ST,MKE",43.0678821,-87.9324717,5,ENTRY,Service in Progress
1211999,2018-05-01 07:45:09,"6680 N TEUTONIA AV,MKE",43.1387543,-87.9529318,4,SPECIAL ASSIGN,Service in Progress
1212063,2018-05-01 08:26:50,"2602 W PORT SUNLIGHT WA,MKE",43.09779899999999,-87.9458586,5,ENTRY,Service in Progress
1212072,2018-05-01 07:49:47,"2301 N LAKE DR,MKE",43.0605802,-87.8823656,1,TRBL W/SUBJ,Assignment Completed
1212004,2018-05-01 07:50:09,"749 W STATE ST,MKE",43.0426483,-87.9212718,1,MED RUN,Service in Progress
1211998,2018-05-01 07:46:38,"245 W LINCOLN AV,MKE",43.0024358,-87.9136371,2,SPECIAL ASSIGN,Open Investigation
1211997,2018-05-01 07:46:56,"2620 W WISCONSIN AV,MKE",43.03919399999999,-87.9470743,3,POLICE ADMIN,Service in Progress
1211995,2018-05-01 07:49:15,"4141 W MARTIN DR,MKE",43.0454819,-87.9668004,3,ENTRY AUTOS,Advised
1212024,2018-05-01 08:02:01,"4805 N SHERMAN BL,MKE",43.1048904,-87.9670557,7,INJ PERSON/SICK,Unable to Locate Complainant
1212010,2018-05-01 07:57:52,"3554 N 19TH ST,MKE",43.08298689999999,-87.9343919,5,ENTRY,Unable to Locate Complainant
1212029,2018-05-01 08:14:56,"W OKLAHOMA AV / W BELOIT RD,MKE",42.9873827,-88.02648099999999,6,ACC PI,Service in Progress
1212012,2018-05-01 07:52:48,"2333 N 49TH ST,MKE",43.0613891,-87.97516410000001,3,OUT OF SERVICE,Assignment Completed
1212112,2018-05-01 09:14:07,"9130 W BROWN DEER RD,MKE",43.1782759,-88.025541,4,ENTRY AUTOS,To be Filed
1212002,2018-05-01 07:53:57,"N 76TH ST / W SILVER SPRING DR,MKE",43.1210359,-88.0058808,4,LOOSE ANIMAL,Advised
1212001,2018-05-01 07:54:23,"749 W STATE ST,MKE",43.0426483,-87.9212718,1,PRISONER TRANS,Service in Progress
1212025,2018-05-01 08:01:03,"7926 W GLENBROOK RD,MKE",43.1884909,-88.00912939999999,4,ENTRY AUTOS,To be Filed
1212042,2018-05-01 07:56:10,"1615 E LOCUST ST,MKE",43.0703469,-87.8898736,1,ACC PDO,Assignment Completed
1212084,2018-05-01 08:42:32,"505 E CAPITOL DR,MKE",43.088805,-87.90388399999999,5,THEFT VEHICLE,Service in Progress
1212027,2018-05-01 07:58:57,"626 E KILBOURN AV,MKE",43.0432138,-87.9039655,1,SUSP PERS/AUTO,Unable to Locate Complainant
1212008,2018-05-01 07:59:06,"6000 N 107TH ST,MKE",43.1278778,-88.0454187,4,TRAFFIC STOP,Advised
1212021,2018-05-01 08:09:18,"3025 N 1ST ST,MKE",43.07358199999999,-87.91143699999999,5,TRBL W/SUBJ,Advised
1212026,2018-05-01 07:59:46,"9600 W LEON TR,MKE",43.134893,-88.03097170000001,4,GAME PLAN,Assignment Completed
1212058,2018-05-01 07:59:52,"4725 W ELECTRIC AV, WEST MILWAUKEE",43.0086095,-87.9733121,7,SPECIAL ASSIGN,Assignment Completed
1212071,2018-05-01 08:13:19,"9821 W OKLAHOMA AV,MKE",42.988066,-88.03562699999999,6,BATTERY,Assignment Completed
1212020,2018-05-01 08:09:25,"1581 S PEARL ST,MKE",43.014557,-87.934626,2,SUSP PERS/AUTO,Service in Progress
1212057,2018-05-01 08:03:52,"2333 N 49TH ST,MKE",43.0613891,-87.97516410000001,3,VEHICLE MAINT,Assignment Completed
1212097,2018-05-01 08:04:04,"2333 N 49TH ST,MKE",43.0613891,-87.97516410000001,3,REPORTS,Assignment Completed
1212067,2018-05-01 08:30:57,"1926 S 26TH ST,MKE",43.0097592,-87.9462128,2,PROPERTY DAMAGE,Advised
1212335,2018-05-01 11:13:34,"3754 N 26TH ST,MKE",43.0859275,-87.94556449999999,5,BATTERY,Unable to Locate Complainant
1212092,2018-05-01 08:10:15,"2130 S 7TH ST,MKE",43.005828,-87.9196714,2,FIRE,Assignment Completed
1212040,2018-05-01 08:11:12,"821 W STATE ST,MKE",43.0425413,-87.9223339,1,COURT DUTY,Service in Progress
1212039,2018-05-01 08:11:54,"749 W STATE ST,MKE",43.0426483,-87.9212718,1,BATTERY,Service in Progress
1212038,2018-05-01 08:12:34,"3626 W FOND DU LAC AV,MKE",43.0766866,-87.95881700000001,7,REPORTS,Service in Progress
1212037,2018-05-01 08:12:55,"N 37TH ST / W FAIRMOUNT AV,MKE",43.1082659,-87.9589756,7,INVESTIGATION,Assignment Completed
1212055,2018-05-01 08:21:00,"N WATER ST / E PLEASANT ST,MKE",43.0504767,-87.90717289999999,1,TRAFFIC HAZARD,Advised
1212035,2018-05-01 08:13:29,"8641 W CAPITOL DR,MKE",43.0893418,-88.021385,7,CITIZEN CONVEY,Service in Progress
1212033,2018-05-01 08:13:45,"3000 N SHERMAN BL,MKE",43.0737579,-87.9655631,7,SPECIAL ASSIGN,Service in Progress
1212032,2018-05-01 08:14:11,"951 N JAMES LOVELL ST,MKE",43.0426942,-87.9205807,1,COURT DUTY,Service in Progress
1212048,2018-05-01 08:16:00,"N 43RD ST / W NEWTON PL,MKE",43.1222648,-87.96619799999999,4,SUSP PERS/AUTO,Service in Progress
1212111,2018-05-01 08:16:16,"949 N 9TH ST,MKE",43.0426807,-87.92375129999999,1,COURT DUTY,To be Filed
1212045,2018-05-01 08:18:26,"6032 N HOPKINS ST,MKE",43.1272969,-87.9670862,4,BATTERY DV,Service in Progress
1212113,2018-05-01 09:12:48,"4115 W HIGHLAND BL,MKE",43.0463167,-87.9658693,3,FRAUD CRED CARD,Service in Progress
1212096,2018-05-01 08:19:07,"3860 S HOWELL AV,MKE",42.9742305,-87.9090188,6,POLICE ADMIN,Assignment Completed
1212043,2018-05-01 08:19:41,"1975 S 24TH ST,MKE",43.0088417,-87.9443345,2,SPECIAL ASSIGN,Service in Progress
1212110,2018-05-01 08:22:43,"4023 N 46TH ST,MKE",43.0904768,-87.9713608,7,WELFARE CITIZEN,Advised
1212054,2018-05-01 08:22:11,6700 W CAPITOL DR,43.0903621,-87.9961732,7,BUS INVESTIGATIO,Assignment Completed
1212053,2018-05-01 08:22:43,"749 W STATE ST,MKE",43.0426483,-87.9212718,1,REPORTS,Service in Progress
1212108,2018-05-01 08:30:43,"2651-BLK S KINNICKINNIC AV,MKE",42.99659690000001,-87.8982815,6,TRBL W/JUV,Advised
1212050,2018-05-01 08:24:24,"3500 W WELLS ST,MKE",43.0403072,-87.9576891,3,PATROL,Assignment Completed
1212064,2018-05-01 08:25:39,"4770 N 37TH ST,MKE",43.10408899999999,-87.95879699999999,7,TRAFFIC STOP,City Citation(s) Issued
1212109,2018-05-01 08:27:15,"6105 N 107TH ST,MKE",43.1284675,-88.0458029,4,TRAFFIC STOP,City Citation(s) Issued
1212070,2018-05-01 08:30:19,"312 E WISCONSIN AV,MKE",43.0390485,-87.90750609999999,1,PROPERTY DAMAGE,Assignment Completed
1212229,2018-05-01 10:30:55,"137 N 66TH ST,MKE",43.0323792,-87.99498400000002,3,TRBL W/SUBJ-DV,Service in Progress
1212061,2018-05-01 08:28:23,"245 W LINCOLN AV,MKE",43.0024358,-87.9136371,2,SPECIAL ASSIGN,Service in Progress
1212060,2018-05-01 08:28:54,"4257 N 100TH ST,MKE",43.09548460000001,-88.0387968,7,BUSINESS CHECK,Assignment Completed
1212073,2018-05-01 08:39:33,"W ORCHARD ST / S 12TH ST,MKE",43.0160343,-87.92677979999999,2,TRBL W/SUBJ,Service in Progress
1212059,2018-05-01 08:29:33,"400 W NATIONAL AV,MKE",43.0234031,-87.9155147,2,SCHL MONITORING,Assignment Completed
1212068,2018-05-01 08:30:44,"3041 N 44TH ST,MKE",43.0743776,-87.9688915,7,FOLLOW UP,Service in Progress
1212066,2018-05-01 08:31:18,"N MILWAUKEE ST / E JUNEAU AV,MKE",43.0458825,-87.9115736,1,TRAFFIC STOP,City Citation(s) Issued
1212065,2018-05-01 08:31:54,"3401 W WISCONSIN AV,MKE",43.0378659,-87.9558241,3,FOLLOW UP,Assignment Completed
1212095,2018-05-01 08:42:54,"E IVANHOE PL / N LAKE DR,MKE",43.0583421,-87.8820767,1,ACC PDO,To be Filed
1212077,2018-05-01 08:35:50,"949 N 9TH ST,MKE",43.0426807,-87.92375129999999,1,COURT DUTY,Service in Progress
1212075,2018-05-01 08:38:33,"N 44TH ST / W CENTER ST,MKE",43.0682512,-87.98316460000001,3,TRBL W/JUV,Unable to Locate Complainant
1212094,2018-05-01 08:52:09,"3628 W PIERCE ST,MKE",43.023793,-87.9597838,2,TRBL W/JUV,Service in Progress
1212087,2018-05-01 08:41:04,"2823 N PALMER ST,MKE",43.069971,-87.9098245,5,BATTERY DV,Service in Progress
1212120,2018-05-01 08:38:18,"2333 N 49TH ST,MKE",43.0613891,-87.97516410000001,3,VEHICLE MAINT,Assignment Completed
1212154,2018-05-01 09:46:13,"833 N 26TH ST,MKE",43.04113290000001,-87.9473423,3,TRBL W/SUBJ,Service in Progress
1212074,2018-05-01 08:39:21,"2017 N 24TH PL,MKE",43.0568009,-87.94407819999999,3,NETWORK CRIMINAL,Assignment Completed
1212088,2018-05-01 08:40:51,"3000 W CANAL ST,MKE",43.0312157,-87.9508962,3,VEHICLE MAINT,Service in Progress
1212086,2018-05-01 08:41:34,"1721 W CANAL ST,MKE",43.0302135,-87.934859,3,FOLLOW UP,Assignment Completed
1212085,2018-05-01 08:41:40,"1422 W CLAYTON CREST AV,MKE",42.9477172,-87.93146949999999,6,FOLLOW UP,To be Filed
1212119,2018-05-01 08:44:25,"2776 N 53RD ST,MKE",43.069668,-87.979477,7,TRBL W/SUBJ,Assignment Completed
1212100,2018-05-01 08:55:58,"2433 S 15TH ST,MKE",43.00034420000001,-87.93155229999999,2,ADDL INFO,Service in Progress
1212115,2018-05-01 08:43:31,"9200 W WISCONSIN AV,MKE",43.0408561,-88.02486499999999,3,FOLLOW UP,Assignment Completed
1212080,2018-05-01 08:44:24,"1236 S 1ST ST,MKE",43.0185195,-87.9108502,2,BUSINESS CHECK,Assignment Completed
1212078,2018-05-01 08:44:29,"N 24TH ST / W BROWN ST,MKE",43.0563232,-87.94269109999999,3,VEHICLE PURSUIT,Assignment Completed
1212091,2018-05-01 08:45:27,"6929 W SILVER SPRING DR,MKE",43.1188947,-87.9982818,4,POLICE ADMIN,Service in Progress
1212133,2018-05-01 08:46:50,"6929 W SILVER SPRING DR,MKE",43.1188947,-87.9982818,4,ASSIGNMENT,Assignment Completed
1212243,2018-05-01 10:35:23,"N 26TH ST / W HIGHLAND AV,MKE",43.0444457,-87.94630099999999,3,DRUG DEALING,Service in Progress
1212593,2018-05-01 13:27:03,"1242 W HIGHLAND AV,MKE",43.04457800000001,-87.928479,3,TRBL W/SUBJ,Unable to Locate Complainant
1212134,2018-05-01 09:32:58,"1712 W GALENA ST,MKE",43.0514709,-87.93450969999999,3,VIOL REST ORDER,Advised/Referral
1212220,2018-05-01 10:08:33,"3754 N 27TH ST,MKE",43.085942,-87.94672299999999,5,WELFARE CITIZEN,Advised
1212102,2018-05-01 09:03:18,"2271 S HOWELL AV,MKE",43.0031635,-87.9049187,6,TRBL W/SUBJ,Assignment Completed
1212146,2018-05-01 09:20:40,"139 E BURLEIGH ST,MKE",43.074526,-87.909695,5,SUBJ WITH GUN,Advised
1212135,2018-05-01 09:32:03,"500 N WATER ST,MKE",43.0364491,-87.90846409999999,1,ENTRY AUTOS,Service in Progress
1212099,2018-05-01 08:59:57,"N 33RD ST / W ROHR AV,MKE",43.113807,-87.95290299999999,4,PARK AND WALK,Service in Progress
1212104,2018-05-01 09:01:03,"5821 W BURLEIGH ST,MKE",43.0750819,-87.985564,7,TRAFFIC STOP,Advised
1212107,2018-05-01 09:05:52,"9602 W METCALF PL,MKE",43.0859268,-88.0321244,7,BATTERY DV,Service in Progress
1212103,2018-05-01 09:02:19,"2637 S KINNICKINNIC AV,MKE",42.9968316,-87.898783,6,SUBJ STOP,Assignment Completed
1212101,2018-05-01 09:03:22,"7555 N 76TH ST,MKE",43.1552672,-88.0055065,4,PROPERTY PICKUP,Assignment Completed
1212183,2018-05-01 09:56:00,"5230 N SHERMAN BL,MKE",43.1127064,-87.9657162,4,TRBL W/JUV,Unable to Locate Complainant
1212213,2018-05-01 10:28:31,"N 19TH ST / W CENTER ST,MKE",43.0674649,-88.0663044,3,ACC PI,Unable to Locate Complainant
1212131,2018-05-01 09:27:23,"408 E BRUCE ST,MKE",43.02556329999999,-87.9063948,2,TRBL W/SUBJ,Advised
1212106,2018-05-01 09:07:25,"1343 N 6TH ST,MKE",43.0480287,-87.9192868,5,TRAFFIC STOP,City Citation(s) Issued
1212105,2018-05-01 09:08:09,"3645 W FOREST HOME AV,MKE",42.993201,-87.9605302,6,TRAFFIC STOP,City Citation(s) Issued
1212433,2018-05-01 11:24:15,"3343 N 30TH ST,MKE",43.07995409999999,-87.9517068,5,STOLEN VEHICLE,Assignment Completed
1212114,2018-05-01 09:10:34,"821 W STATE ST,MKE",43.0425413,-87.9223339,1,COURT DUTY,Service in Progress
1212158,2018-05-01 09:16:36,"10008 W GREENWOOD TR,MKE",43.1525939,-88.036729,4,SUSP PERS/AUTO,Unable to Locate Complainant
1212219,2018-05-01 10:24:56,"2147 S 24TH ST,MKE",43.005657,-87.9439931,2,WELFARE CITIZEN,Advised
1212139,2018-05-01 09:21:22,"4877 N 55TH ST,MKE",43.106458,-87.981702,7,FAMILY TROUBLE,Unable to Locate Complainant
1212295,2018-05-01 10:59:51,"2501 N 40TH ST,MKE",43.064398,-87.963747,3,WELFARE CITIZEN,Advised
1212123,2018-05-01 09:24:27,"545 W LAYTON AV,MKE",42.9578322,-87.9183497,6,ENTRY AUTOS,Open Investigation
1212147,2018-05-01 09:18:01,"3021 W FARDALE AV,MKE",42.9772754,-87.9520513,6,TRBL W/SUBJ,Advised
1212174,2018-05-01 09:24:37,"4444 N 39TH ST,MKE",43.0981797,-87.9613722,7,TRBL W/SUBJ,Unable to Locate Complainant
1212189,2018-05-01 10:05:09,"2316 W HOPE AV,MKE",43.0928665,-87.94144179999999,5,BATTERY,Unable to Locate Complainant
1212116,2018-05-01 09:19:49,"3860 S HOWELL AV,MKE",42.9742305,-87.9090188,6,PROPERTY PICKUP,Service in Progress
1212199,2018-05-01 09:20:41,"3626 W FOND DU LAC AV,MKE",43.0766866,-87.95881700000001,7,CONVEY PROPERTY,Assignment Completed
1212197,2018-05-01 10:00:48,"3946 N 62ND ST,MKE",43.089142,-87.98917019999999,7,PROPERTY DAM-DV,Assignment Completed
1212175,2018-05-01 09:23:10,"2550 S 68TH ST,MKE",25.8841505,-80.33669119999999,6,TRAFFIC STOP,Advised
1212121,2018-05-01 09:24:45,"D3, MKE",29.7796151,-81.25762859999999,3,RETURN STATION,Service in Progress
1212204,2018-05-01 09:25:07,"5200 N 124TH ST,MKE",43.1121492,-88.065478,4,FOLLOW UP,Assignment Completed
1212185,2018-05-01 09:30:22,"5342 N 34TH ST,MKE",43.1146909,-87.95492949999999,4,BATTERY DV,Advised/Referral
1212138,2018-05-01 09:27:27,"N 37TH ST / W HAMPTON AV,MKE",43.1045919,-87.95910429999999,7,TRBL W/SUBJ,Assignment Completed
1212274,2018-05-01 10:30:57,"N 20TH ST / W LOCUST ST,MKE",43.070714,-87.914514,5,ACC PDO,Open Investigation
1212172,2018-05-01 09:44:26,"S 29TH ST / W GREENFIELD AV,MKE",43.0169465,-87.9502645,2,TRBL W/SUBJ,Advised
1212129,2018-05-01 09:28:30,"2639 S KINNICKINNIC AV,MKE",42.996758,-87.898746,6,CITIZEN CONTACT,Open Investigation
1212136,2018-05-01 09:31:08,"3465 N SHEPARD AV,MKE",43.0810701,-87.8746625,1,CITIZEN CONTACT,Assignment Completed
1212168,2018-05-01 09:56:12,"N 76TH ST / W BOBOLINK AV,MKE",43.1250259,-88.00607339999999,4,TRAFFIC HAZARD,Service in Progress
1212191,2018-05-01 10:03:31,"1578 N 22ND ST,MKE",43.0514601,-87.9398672,3,BATTERY DV,Advised/Referral
1212173,2018-05-01 09:36:08,"754 S SHEA AV,MKE",43.0226602,-87.95475019999999,2,BATTERY DV,Advised/Referral
1212234,2018-05-01 09:35:31,"3006 S 27TH ST,MKE",42.990477,-87.9475489,6,REPORTS,Assignment Completed
1212144,2018-05-01 09:35:35,"6103 N 107TH ST,MKE",43.12845189999999,-88.0460195,4,TRAFFIC STOP,Advised
1212184,2018-05-01 09:36:02,"S 6TH ST / W BOLIVAR AV,MKE",42.96425500000001,-87.9194348,6,TRAFFIC HAZARD,Assignment Completed
1212141,2018-05-01 09:38:44,"8641 W CAPITOL DR,MKE",43.0893418,-88.021385,7,FOLLOW UP,Unable to Locate Complainant
1212157,2018-05-01 09:39:26,"3626 W FOND DU LAC AV,MKE",43.0766866,-87.95881700000001,7,RETURN STATION,Assignment Completed
1212222,2018-05-01 09:40:03,"245 W LINCOLN AV,MKE",43.0024358,-87.9136371,2,REPORTS,Assignment Completed
1212149,2018-05-01 09:43:39,"4832 N 57TH ST,MKE",43.1055407,-87.98352779999999,7,TRBL W/SUBJ,Unable to Locate Complainant
1212156,2018-05-01 09:41:03,"2463 N BUFFUM ST,MKE",43.0634601,-87.90712680000001,5,SCHL MONITORING,Assignment Completed
1212216,2018-05-01 10:26:41,"5120 W CAPITOL DR,MKE",43.0903855,-87.9779995,7,THEFT,Service in Progress
1212176,2018-05-01 10:03:57,"2179 N 52ND ST,MKE",43.0588541,-87.9791133,3,ABAND/STOLEN PRO,Service in Progress
1212153,2018-05-01 09:47:22,"9842 W BROWN DEER RD,MKE",43.1777448,-88.0338026,4,ENTRY AUTOS,Assignment Completed
1212277,2018-05-01 11:09:14,"1236 W SCOTT ST,MKE",43.01929690000001,-87.927984,2,WELFARE CITIZEN,Service in Progress
1212221,2018-05-01 09:45:29,"3626 W FOND DU LAC AV,MKE",43.0766866,-87.95881700000001,7,VEHICLE MAINT,Assignment Completed
1212231,2018-05-01 10:30:24,"5227 W MEINECKE AV,MKE",43.0623128,-87.9795254,3,ADDL INFO,Unable to Locate Complainant
1212152,2018-05-01 09:48:42,"1418 S 8TH ST,MKE",43.016545,-87.92073099999999,2,FOLLOW UP,Assignment Completed
1212338,2018-05-01 10:39:33,"2625 W NATIONAL AV,MKE",43.02200759999999,-87.9468828,2,ENTRY AUTOS,To be Filed
1212163,2018-05-01 09:50:17,"3811 W LINCOLN AV,MKE",43.0025462,-87.9620424,2,INVESTIGATION,Service in Progress
1212352,2018-05-01 11:43:22,"2318 S 9TH PL,MKE",43.0023659,-87.9233874,2,VIOL REST ORDER,Unable to Locate Complainant
1212162,2018-05-01 09:50:38,"1011 N 6TH ST,MKE",43.0432521,-87.91970309999999,1,TRAFFIC STOP,Advised
1212161,2018-05-01 09:51:09,"6929 W SILVER SPRING DR,MKE",43.1188947,-87.9982818,4,POLICE ADMIN,Assignment Completed
1212368,2018-05-01 11:12:14,"3635 S 17TH ST,MKE",42.9785371,-87.9357213,6,TRBL W/JUV,Advised
1212160,2018-05-01 09:52:38,"2500 S 68TH ST,WA",47.1955941,-122.469744,OUT,TRAFFIC STOP,Advised
1212171,2018-05-01 09:54:07,"4678 N 39TH ST,MKE",43.102432,-87.961214,7,BATTERY,Advised/Referral
1212203,2018-05-01 10:08:18,"5735 N 41ST ST,MKE",43.1222693,-87.9636686,4,SUBJ WITH GUN,Service in Progress
1212169,2018-05-01 09:56:09,"200 E LOCUST ST,MKE",43.0713421,-87.9093153,5,CITIZEN CONTACT,Assignment Completed
1212182,2018-05-01 09:56:33,"951 N JAMES LOVELL ST,MKE",43.0426942,-87.9205807,1,COURT DUTY,Assignment Completed
1212248,2018-05-01 10:48:17,"1330 N 30TH ST,MKE",43.047991,-87.950915,3,TRBL W/SUBJ,Unable to Locate Complainant
1212166,2018-05-01 09:57:33,"2402 W GARFIELD AV,MKE",43.0593466,-87.94280499999999,3,FOLLOW UP,Unable to Locate Complainant
1212198,2018-05-01 09:58:36,"6680 N TEUTONIA AV,MKE",43.1387543,-87.9529318,4,PROPERTY PICKUP,Assignment Completed
1212188,2018-05-01 10:08:06,"153 W ARMOUR AV,MKE",42.9613424,-87.9118937,6,FRAUD,Advised
1212192,2018-05-01 09:59:57,"150 W HOLT AV,MKE",42.9840606,-87.9115265,6,PARK AND WALK,Assignment Completed
1212181,2018-05-01 10:00:29,"1750 N LINCOLN MEMORIAL DR,MKE",43.0526066,-87.8862639,1,POLICE ADMIN,Assignment Completed
1212195,2018-05-01 10:12:09,"W CAPITOL DR / W GRANTOSA DR,MKE",43.0963491,-88.0342812,7,TRBL W/SUBJ,Unable to Locate Complainant
1212202,2018-05-01 10:16:20,"6659 N 75TH ST,MKE",43.1393275,-88.0051293,4,TRBL W/SUBJ,Service in Progress
1212178,2018-05-01 10:03:33,"5400 S 27TH ST,MKE",42.9463241,-87.9476979,6,BUSINESS CHECK,Assignment Completed
1212177,2018-05-01 10:03:37,"1400 E BRADY ST,MKE",43.0531544,-87.8934292,1,FOLLOW UP,Service in Progress
1212190,2018-05-01 10:05:02,"1423 S 8TH ST,MKE",43.0164926,-87.9214294,2,STOLEN VEHICLE,Service in Progress
1212254,2018-05-01 10:21:24,"7130 N 76TH ST,MKE",43.147578,-88.004787,4,PROPERTY DAMAGE,Open Investigation
1212263,2018-05-01 10:28:29,"2522 W WELLS ST,MKE",43.0405346,-87.94569589999999,3,BATTERY DV,Unable to Locate Complainant
1212196,2018-05-01 10:11:03,"2521 S 8TH ST,MKE",42.9986504,-87.9215103,2,FOLLOW UP,Assignment Completed
1212194,2018-05-01 10:13:03,"2656 N TEUTONIA AV,MKE",43.0671567,-87.9288539,3,CITIZEN CONTACT,Assignment Completed
1212193,2018-05-01 10:13:45,"700 W GREENFIELD AV,MKE",43.01703639999999,-87.9197128,2,FOLLOW UP,Assignment Completed
1212208,2018-05-01 10:18:42,"S 13TH ST / W ORCHARD ST,MKE",42.9297602,-87.93011179999999,2,BATTERY,Advised
1212296,2018-05-01 10:34:25,"3252 N 29TH ST,MKE",43.0782271,-87.9494289,5,FAMILY TROUBL-DV,Advised
1212201,2018-05-01 10:18:12,"9500 W GREENWOOD TR,MKE",43.1521718,-88.0310085,4,PLANT CAR,Assignment Completed
1212218,2018-05-01 10:25:05,"142 E CAPITOL DR,MKE",43.0897362,-87.90956709999999,5,THEFT,Service in Progress
1212206,2018-05-01 10:22:24,"821 W STATE ST,MKE",43.0425413,-87.9223339,1,COURT DUTY,Service in Progress
1212217,2018-05-01 10:25:06,"3501 W FOREST HOME AV,MKE",42.992027,-87.95934299999999,6,TRAFFIC STOP,Advised
1212245,2018-05-01 10:26:47,"2333 N 49TH ST,MKE",43.0613891,-87.97516410000001,3,FOLLOW UP,Assignment Completed
1212233,2018-05-01 10:28:45,"1801 W OLIVE ST,MKE",43.093505,-87.933084,5,SCHL MONITORING,Assignment Completed
1212232,2018-05-01 10:28:52,"4800 S 10TH ST,MKE",42.9572166,-87.9241972,6,FOLLOW UP,Assignment Completed
1212210,2018-05-01 10:29:29,"801 W MICHIGAN ST,MKE",43.0372511,-87.9223311,1,SPECIAL ASSIGN,Service in Progress
1212260,2018-05-01 10:37:08,"2768 N 76TH ST,MKE",43.069546,-88.007018,7,ABDUCTION,Advised/Referral
1212262,2018-05-01 10:29:32,"619 W WALNUT ST,MKE",43.052153,-87.9191542,5,FOLLOW UP,Assignment Completed
1212230,2018-05-01 10:30:34,"3006 S 27TH ST,MKE",42.990477,-87.9475489,6,REPORTS,Service in Progress
1212227,2018-05-01 10:31:49,"6929 W SILVER SPRING DR,MKE",43.1188947,-87.9982818,4,RETURN STATION,Assignment Completed
1212225,2018-05-01 10:33:41,"5401 W BURLEIGH ST,MKE",43.0750389,-87.9812324,7,TRBL W/SUBJ,Advised
1212226,2018-05-01 10:32:35,"8917 W BROWN DEER RD,MKE",43.1770839,-88.02226259999999,4,BUSINESS CHECK,Assignment Completed
1212236,2018-05-01 10:38:35,"2322 W BURNHAM ST,MKE",43.01061199999999,-87.94308699999999,2,BATTERY DV,Service in Progress
1212247,2018-05-01 10:37:14,"S 6TH ST / W MORGAN AV,MKE",42.9815174,-87.91932489999999,6,TRAFFIC HAZARD,Assignment Completed
1212244,2018-05-01 10:34:32,"310 W STATE ST,MKE",43.0429208,-87.9159488,1,TRAFFIC STOP,City Citation(s) Issued
1212242,2018-05-01 10:35:28,"2600 N DOWNER AV,MKE",43.0660813,-87.8780731,1,PARK AND WALK,Assignment Completed
1212261,2018-05-01 10:36:43,"1418 S 8TH ST,MKE",43.016545,-87.92073099999999,2,SUBJ WANTED,Assignment Completed
1212314,2018-05-01 10:37:36,"2400 N 39TH ST,MKE",43.062568,-87.96192099999999,3,SHOTS FIRED,Assignment Completed
1212281,2018-05-01 11:07:50,"5311 N 49TH ST,MKE",43.11413290000001,-87.97410640000001,4,VIOL REST ORDER,Advised
1212237,2018-05-01 10:38:11,"301 S RYAN RD, OAK CREEK",42.8714951,-87.918388,4,POLICE ADMIN,Service in Progress
1212337,2018-05-01 10:56:03,"1923 S WINONA LA,MKE",43.8288186,-91.2523107,2,CRUELTY ANIMAL,Assignment Completed
1212249,2018-05-01 10:46:23,"10901 W DONNA DR,MKE",43.1707436,-88.0472655,4,DEAD ON ENTRY,Service in Progress
1212427,2018-05-01 12:16:39,"2661 N 53RD ST,MKE",43.0673825,-87.9801421,3,LOUD MUSIC - VEH,Unable to Locate Complainant
1212246,2018-05-01 10:41:07,"3038 S 20TH ST,MKE",42.9903229,-87.9372223,6,TRAFFIC STOP,City Citation(s) Issued
1212250,2018-05-01 10:46:14,"2159 N 35TH ST,MKE",43.0588073,-87.9577319,3,STOLEN VEHICLE,Service in Progress
1212294,2018-05-01 11:01:34,"100 E CAPITOL DR,MKE",43.0897709,-87.90996779999999,5,THEFT,Service in Progress
1212392,2018-05-01 12:00:51,"6308 N 77TH ST,MKE",43.1326078,-88.0069725,4,GRAFFITI,Unable to Locate Complainant
1212273,2018-05-01 10:46:09,"5139 W CLINTON AV,MKE",43.1504148,-87.9766221,4,FOLLOW UP,Assignment Completed
1212259,2018-05-01 10:55:32,"S 5TH ST / W NATIONAL AV,MKE",43.0227409,-87.9166104,2,ACC PI,Service in Progress
1212550,2018-05-01 12:52:44,"9200 W WISCONSIN AV,MKE",43.0408561,-88.02486499999999,3,BATTERY DV,Unable to Locate Complainant
1212272,2018-05-01 10:52:52,"4849 S HOWELL AV,MKE",42.9561638,-87.91015019999999,6,BUSINESS CHECK,Assignment Completed
1212697,2018-05-01 13:35:25,"2616 W GARFIELD AV,MKE",43.059475,-87.9467442,3,TRBL W/SUBJ,Advised
1212252,2018-05-01 10:54:31,"2920 N 4TH ST,MKE",43.0716492,-87.91518429999999,5,RETURN STATION,Assignment Completed
1212257,2018-05-01 10:56:48,"2800 W KILBOURN AV,MKE",43.04164859999999,-87.94899819999999,3,INVESTIGATION,Assignment Completed
1212292,2018-05-01 11:07:49,"W GOOD HOPE RD / N TEUTONIA AV,MKE",43.1480006,-88.0486354,4,INJ PERSON/SICK,Advised
1212358,2018-05-01 11:40:03,"4206 N 27TH ST,MKE",43.0931137,-87.94654009999999,5,ENTRY,Service in Progress
1212256,2018-05-01 10:59:05,"2864 S 35TH ST,MKE",42.9925207,-87.95778829999999,6,TRAFFIC STOP,Advised
1212278,2018-05-01 11:09:05,"5510 N 34TH ST,MKE",43.11769899999999,-87.95472699999999,4,PROPERTY PICKUP,Advised
1212336,2018-05-01 11:01:25,"N 45TH ST / W MEINECKE AV,MKE",43.0624597,-87.9700297,3,SUBJ WANTED,Unable to Locate Complainant
1212269,2018-05-01 11:01:52,"2326 W ST PAUL AV,MKE",43.0351398,-87.9430539,3,VEHICLE MAINT,Service in Progress
1212365,2018-05-01 11:30:46,"2051 S 5TH ST,MKE",43.0074569,-87.91674019999999,2,ENTRY,Unable to Locate Complainant
1212268,2018-05-01 11:02:16,"4141 N 64TH ST,MKE",43.0934216,-87.9933138,7,SCHL MONITORING,Assignment Completed
1212326,2018-05-01 11:02:24,"951 N JAMES LOVELL ST,MKE",43.0426942,-87.9205807,1,SUBJ WANTED,Unable to Locate Complainant
1212313,2018-05-01 11:03:17,"3626 W FOND DU LAC AV,MKE",43.0766866,-87.95881700000001,7,SPECIAL ASSIGN,Assignment Completed
1212370,2018-05-01 11:04:00,"4600 N GREEN BAY AV,MKE",43.10044569999999,-87.92900580000001,7,FOLLOW UP,Assignment Completed
1212293,2018-05-01 11:04:56,"6680 N TEUTONIA AV,MKE",43.1387543,-87.9529318,4,POLICE ADMIN,Assignment Completed
1212284,2018-05-01 11:05:54,"1711 W WHITAKER AV,MKE",42.9654229,-87.9359729,6,TRAFFIC STOP,Advised
1212342,2018-05-01 11:36:16,"1705 W GALENA ST,MKE",43.051083,-87.934378,3,DRUG DEALING,Unable to Locate Complainant
1212325,2018-05-01 11:07:37,"3626 W FOND DU LAC AV,MKE",43.0766866,-87.95881700000001,7,FOLLOW UP,Assignment Completed
1212280,2018-05-01 11:08:21,"2920 N 4TH ST,MKE",43.0716492,-87.91518429999999,5,REPORTS,Service in Progress
1212300,2018-05-01 11:19:04,"9919 W FOND DU LAC AV,MKE",43.1359526,-88.03606189999999,4,LANDLORD/TEN TRB,Unable to Locate Complainant
1212305,2018-05-01 11:24:05,"2520 W NATIONAL AV,MKE",43.0226341,-87.94584909999999,2,FIGHT,Unable to Locate Complainant
1212279,2018-05-01 11:08:45,"805 E MASON ST,MKE",43.04027,-87.9010545,1,SPECIAL ASSIGN,Service in Progress
1212276,2018-05-01 11:09:53,"4201 W SPAULDING PL,MKE",43.058194,-87.96604599999999,3,IND EXPOSURE,Service in Progress
1212275,2018-05-01 11:09:58,62ND/LAYTON,41.4382347,-103.1998116,5,VEHICLE MAINT,Service in Progress
1212394,2018-05-01 11:12:52,"3042 N 36TH ST,MKE",43.0743296,-87.95827179999999,7,CRUELTY ANIMAL,Assignment Completed
1212395,2018-05-01 11:10:43,"7501 N GRANVILLE RD,MKE",43.1542943,-88.03211089999999,4,FOLLOW UP,Assignment Completed
1212369,2018-05-01 11:11:12,"6680 N TEUTONIA AV,MKE",43.1387543,-87.9529318,4,PROPERTY PICKUP,Assignment Completed
1212347,2018-05-01 11:21:38,"1100 N 50TH ST,MKE",43.04418039999999,-87.97564369999999,3,SUSP PERS/AUTO,Unable to Locate Complainant
1212286,2018-05-01 11:14:13,"3470 S 9TH PL,MKE",42.9813429,-87.92377049999999,6,TRAFFIC STOP,Advised
1212285,2018-05-01 11:14:24,"400 W HOLT AV,MKE",42.9822523,-87.9164069,6,TRAFFIC STOP,City Citation(s) Issued
1212329,2018-05-01 11:32:03,"1559 S 9TH ST,MKE",43.0147221,-87.9228078,2,FAMILY TROUBLE,Unable to Locate Complainant
1212324,2018-05-01 11:16:26,"700 N RIVERWALK WA,MKE",,,1,PARK AND WALK,Assignment Completed
1212323,2018-05-01 11:19:26,"3275 N 3RD ST,MKE",43.0783771,-87.91463329999999,5,TRBL W/JUV,Advised
1212302,2018-05-01 11:18:30,"S 50TH ST / W CLEVELAND AV,MKE",42.99205509999999,-87.9765155,6,TRAFFIC STOP,Advised
1212367,2018-05-01 11:18:51,"4715 W VLIET ST,MKE",43.0484157,-87.9730637,3,SPECIAL ASSIGN,Assignment Completed
1212298,2018-05-01 11:19:33,"8135 W FLORIST AV,MKE",43.1265041,-88.01358809999999,4,SCHL MONITORING,Assignment Completed
1212297,2018-05-01 11:19:41,"245 W LINCOLN AV,MKE",43.0024358,-87.9136371,2,OUT OF SERVICE,Assignment Completed
1212408,2018-05-01 11:28:21,"700 W GRANGE AV,MKE",42.9449814,-87.92093559999999,6,SUBJ WANTED,Unable to Locate Complainant
1212311,2018-05-01 11:21:44,CALEDONIA STABLES,53.301443,-113.4790277,1,POLICE ADMIN,Service in Progress
1212366,2018-05-01 11:22:00,"2320 W WISCONSIN AV,MKE",43.0387368,-87.942262,3,FOLLOW UP,Assignment Completed
1212389,2018-05-01 11:22:41,"4567 N 46TH ST,MKE",43.100433,-87.970968,7,SHOTSPOTTER,Assignment Completed
1212397,2018-05-01 12:08:50,"4056 N 41ST ST,MKE",43.0911489,-87.9638504,7,ENTRY AUTOS,Service in Progress
1212322,2018-05-01 11:22:16,"4115 N 56TH ST,MKE",43.0918304,-87.98339759999999,7,RETURN STATION,Assignment Completed
1212307,2018-05-01 11:22:44,"6929 W SILVER SPRING DR,MKE",43.1188947,-87.9982818,4,POLICE ADMIN,Service in Progress
1212346,2018-05-01 11:22:54,"2333 N 49TH ST,MKE",43.0613891,-87.97516410000001,3,POLICE ADMIN,Assignment Completed
1212432,2018-05-01 11:26:15,"N 89TH ST / W CARMEN AV,MKE",43.1234837,-88.0231741,4,ACC PDO,To be Filed
1212317,2018-05-01 11:26:57,"3024 N 30TH ST,MKE",43.074005,-87.9508028,5,VIOL REST ORDER,Service in Progress
1212443,2018-05-01 11:26:31,BADGER UNIFORM,42.9230098,-87.9051028,1,POLICE ADMIN,Assignment Completed
1212319,2018-05-01 11:26:41,"245 W LINCOLN AV,MKE",43.0024358,-87.9136371,2,POLICE ADMIN,Assignment Completed
1212420,2018-05-01 11:37:01,"4928 W VILLARD AV,MKE",43.112276,-87.97477099999999,4,THEFT,Assignment Completed
1212318,2018-05-01 11:26:55,"936 W WISCONSIN AV,MKE",43.039641,-87.92407329999999,1,TRAFFIC STOP,City Citation(s) Issued
1212315,2018-05-01 11:28:34,"7900 W FLORIST AV,MKE",43.126862,-88.0096775,4,CITIZEN CONTACT,Assignment Completed
1212339,2018-05-01 11:38:19,"5510 N 34TH ST,MKE",43.11769899999999,-87.95472699999999,4,THEFT,Service in Progress
1212442,2018-05-01 11:32:05,"541 W LAPHAM BL,MKE",43.014116,-87.9170041,2,BATTERY DV,Advised/Referral
1212334,2018-05-01 11:30:02,"5963 N 78TH ST,MKE",43.1264309,-88.00880780000001,4,CITIZEN CONTACT,Assignment Completed
1212364,2018-05-01 11:31:09,"245 W LINCOLN AV,MKE",43.0024358,-87.9136371,2,CONVEY PROPERTY,Assignment Completed
1212331,2018-05-01 11:31:22,"400 W WISCONSIN AV,MKE",43.0397565,-87.9172488,1,TRAFFIC STOP,City Citation(s) Issued
1212327,2018-05-01 11:33:04,"111 E WISCONSIN AV,MKE",43.038291,-87.9094278,1,WELFARE CITIZEN,Unable to Locate Complainant
1212330,2018-05-01 11:32:02,"2259 W GRANGE AV,MKE",42.944517,-87.943325,6,TRAFFIC STOP,Advised
1212393,2018-05-01 11:41:52,"310 E CAPITOL DR,MKE",43.089639,-87.9068522,5,TRBL W/SUBJ,Advised
1212344,2018-05-01 11:35:43,"819 W CARPENTER AV,MKE",42.9551016,-87.92279359999999,6,TRBL W/SUBJ,Advised
1212345,2018-05-01 11:35:13,"S 6TH ST / W BOLIVAR AV,MKE",42.96425500000001,-87.9194348,6,STOLEN VEHICLE,Assignment Completed
1212445,2018-05-01 12:29:45,"1032 E KNAPP ST,MKE",43.04726609999999,-87.8985764,1,BATTERY,Service in Progress
1212455,2018-05-01 11:53:21,"N 27TH ST / W FOND DU LAC AV,MKE",43.067727,-87.9485028,3,ACC PI,Assignment Completed
1212343,2018-05-01 11:36:15,"2415 W OKLAHOMA AV,MKE",42.9882558,-87.94506299999999,6,TRAFFIC STOP,Advised
1212340,2018-05-01 11:37:53,"6245 N 84TH ST,MKE",43.1316291,-88.0160334,4,PROBATION/PAROLE,Assignment Completed
1212522,2018-05-01 12:44:33,"1345 W LOCUST ST,MKE",43.0710664,-87.9288575,5,PROPERTY PICKUP,Advised
1212396,2018-05-01 12:08:59,"N 35TH ST / W SILVER SPRING DR,MKE",43.1046619,-87.9565939,4,ACC PI,Service in Progress
1212357,2018-05-01 11:40:42,"4361 N SHERMAN BL,MKE",43.0965041,-87.9672917,7,TRAFFIC STOP,Advised
1212388,2018-05-01 11:42:16,"2920 N 4TH ST,MKE",43.0716492,-87.91518429999999,5,RETURN STATION,To be Filed
1212457,2018-05-01 11:42:22,"3839 W BURNHAM ST,MKE",43.009377,-87.96199999999999,2,LOOSE ANIMAL,Assignment Completed
1212351,2018-05-01 11:43:23,"3138 N 44TH ST,MKE",43.0761379,-87.96833769999999,7,TRBL W/SUBJ,Advised
1212363,2018-05-01 11:44:14,"7501 N GRANVILLE RD,MKE",43.1542943,-88.03211089999999,4,SCHL MONITORING,Assignment Completed
1212472,2018-05-01 11:59:45,"216 W RESERVOIR AV,MKE",43.05529,-87.913388,5,SUSP PERS/AUTO,Advised
1212349,2018-05-01 11:44:40,"S 70TH ST / W CLEVELAND AV,MKE",42.993772,-88.0001224,6,TRAFFIC STOP,Advised
1212431,2018-05-01 11:44:57,"3626 W FOND DU LAC AV,MKE",43.0766866,-87.95881700000001,7,INVESTIGATION,Assignment Completed
1212359,2018-05-01 11:48:14,"8173 W BECKETT AV,MKE",43.1043662,-88.0144463,7,DEAD ON ENTRY,Service in Progress
1212362,2018-05-01 11:47:07,"8100 W CONGRESS ST,MKE",43.097419,-88.013774,7,THEFT,Advised
1212407,2018-05-01 11:50:22,"3316 N 3RD ST,MKE",43.079292,-87.913443,5,BATTERY,Advised
1212456,2018-05-01 11:47:15,"245 W LINCOLN AV,MKE",43.0024358,-87.9136371,2,RETURN STATION,Assignment Completed
1212360,2018-05-01 11:47:24,"2608 W COLLEGE AV,MKE",42.9305726,-87.94814389999999,6,TRAFFIC STOP,Advised
1212374,2018-05-01 11:53:38,"S 6TH ST / W LAYTON AV,MKE",42.95890929999999,-87.9198073,6,TRAFFIC HAZARD,Unable to Locate Complainant
1212446,2018-05-01 12:29:44,"2515 N 2ND ST,MKE",43.06465,-87.913572,5,FAMILY TROUBLE,Advised
1212377,2018-05-01 11:51:26,"3821 S 27TH ST,MKE",42.9751109,-87.9488546,6,FIRE,Advised
1212430,2018-05-01 11:50:36,BADGER UNIFORM,42.9230098,-87.9051028,1,POLICE ADMIN,Assignment Completed
1212376,2018-05-01 11:51:28,"3811 W LINCOLN AV,MKE",43.0025462,-87.9620424,2,PHOTO ASSIGN,Service in Progress
1212373,2018-05-01 11:54:11,60/ROOSEVELT,33.7034095,-117.776058,7,TRAFFIC STOP,Advised
1212429,2018-05-01 12:15:32,"3200 W SILVER SPRING DR,MKE",43.1191976,-87.9527959,4,INJ PERSON/SICK,Service in Progress
1212372,2018-05-01 11:54:29,"700 N VAN BUREN ST,MKE",43.0389539,-87.902773,1,TRAFFIC STOP,Advised
1212484,2018-05-01 11:54:46,"5639 N 95TH ST,MKE",43.1203799,-88.0311691,4,PROBATION/PAROLE,Assignment Completed
1212473,2018-05-01 11:55:01,"7550 W APPLETON AV,MKE",43.0930759,-88.0059112,7,VEHICLE MAINT,Assignment Completed
1212386,2018-05-01 11:55:15,"1019 N OLD WORLD THIRD ST,MKE",43.0433812,-87.9147644,1,SUBJ WANTED,Service in Progress
1212384,2018-05-01 11:58:16,"2363 S 13TH ST,MKE",43.0014711,-87.928736,2,ACC PI,Service in Progress
1212403,2018-05-01 12:05:04,"S 13TH ST / W HAYES AV,MKE",43.0012512,-87.9285049,2,ACC PI,Service in Progress
1212454,2018-05-01 11:57:19,"2810 W KILBOURN AV,MKE",43.041832,-87.94933,3,INVESTIGATION,Assignment Completed
1212383,2018-05-01 11:59:09,"245 W LINCOLN AV,MKE",43.0024358,-87.9136371,2,REPORTS,Assignment Completed
1212406,2018-05-01 11:59:19,"2333 N 49TH ST,MKE",43.0613891,-87.97516410000001,3,PROPERTY PICKUP,Assignment Completed
1212441,2018-05-01 11:59:34,"1150 N WATER ST,MKE",43.04532,-87.91074150000001,1,BUSINESS CHECK,Assignment Completed
1212418,2018-05-01 12:11:10,"1017 N 12TH ST,MKE",43.043758,-87.9275464,3,TRBL W/JUV,Service in Progress
1212405,2018-05-01 12:01:20,"1508 N 40TH ST,MKE",43.05042359999999,-87.9633242,3,TRAFFIC STOP,Advised
1212421,2018-05-01 12:19:47,"3590 N 85TH ST,MKE",43.0834807,-88.01853539999999,7,TRBL W/SUBJ,Unable to Locate Complainant
1212483,2018-05-01 12:13:35,"N 91ST ST / W CALUMET RD,MKE",43.1120543,-88.0258444,4,ACC PI,To be Filed
1212404,2018-05-01 12:03:23,"959 W LINCOLN AV,MKE",43.0025243,-87.9240384,2,BUSINESS CHECK,Assignment Completed
1212448,2018-05-01 12:28:36,"9919 W FOND DU LAC AV,MKE",43.1359526,-88.03606189999999,4,LANDLORD/TEN TRB,Advised
1212402,2018-05-01 12:06:15,"800 N LINCOLN MEMORIAL DR,MKE",43.0509433,-87.8901509,1,TRAFFIC STOP,Advised
1212401,2018-05-01 12:06:45,"3626 W FOND DU LAC AV,MKE",43.0766866,-87.95881700000001,7,RETURN STATION,Assignment Completed
1212482,2018-05-01 12:16:54,"1935 W BURNHAM ST,MKE",43.0101001,-87.9377121,2,CHILD CUSTODY,Advised
1212438,2018-05-01 12:20:06,"2271 S HOWELL AV,MKE",43.0031635,-87.9049187,6,LANDLORD/TEN TRB,Advised
1212400,2018-05-01 12:08:02,"5962 N 79TH ST,MKE",43.12644090000001,-88.0093813,4,FOLLOW UP,To be Filed
1212440,2018-05-01 12:08:37,"W HAMPTON AV / N HOPKINS ST,MKE",43.1051109,-87.9594886,7,ACC PI,Assignment Completed
1212419,2018-05-01 12:08:21,"3910 W GREENFIELD AV,WMW",42.9999045,-88.0462469,OUT,INVESTIGATION,To be Filed
1212415,2018-05-01 12:11:40,"N 51ST BL / W SILVER SPRING DR,MKE",43.0991909,-87.97676589999999,4,SHOTS FIRED,Assignment Completed
1212417,2018-05-01 12:11:16,"770 N WATER ST,MKE",43.0401897,-87.9089941,1,BUSINESS CHECK,Assignment Completed
1212416,2018-05-01 12:11:28,"901 N 9TH ST,MKE",43.0415872,-87.9240961,1,FOLLOW UP,Assignment Completed
1212439,2018-05-01 12:15:50,"S 22ND ST / W ORCHARD ST,MKE",43.0160165,-87.9408842,2,SUSP PERS/AUTO,Advised
1212411,2018-05-01 12:13:55,"S 8TH ST / W HARRISON AV,MKE",42.9976447,-87.9213078,2,SHOTS FIRED,Unable to Locate Complainant
1212423,2018-05-01 12:18:20,"5324 N 49TH ST,MKE",43.1144164,-87.973542,4,SHOTS FIRED,Service in Progress
1212527,2018-05-01 12:13:14,"4715 W VLIET ST,MKE",43.0484157,-87.9730637,3,REPORTS,Assignment Completed
1212413,2018-05-01 12:13:17,"245 W LINCOLN AV,MKE",43.0024358,-87.9136371,2,SPECIAL ASSIGN,Service in Progress
1212495,2018-05-01 12:14:01,"3626 W FOND DU LAC AV,MKE",43.0766866,-87.95881700000001,7,ASSIGNMENT,To be Filed
1212409,2018-05-01 12:14:44,"401 E CAPITOL DR,MKE",43.0876133,-87.90575539999999,5,BUSINESS CHECK,Assignment Completed
1212861,2018-05-01 14:52:22,"3214 N PALMER ST,MKE",43.0768083,-87.9085983,5,PROPERTY DAMAGE,Unable to Locate Complainant
1212521,2018-05-01 12:46:41,"1336 S CESAR E CHAVEZ DR,MKE",43.0172105,-87.93289589999999,2,TRBL W/SUBJ,Advised
1212555,2018-05-01 13:14:08,"2005 W ORCHARD ST,MKE",43.0157809,-87.9383919,2,RECK USE OF WEAP,Service in Progress
1212526,2018-05-01 12:20:25,"9008 W BROWN DEER RD,MKE",43.1781017,-88.02345419999999,4,TRBL W/JUV,Advised
1212453,2018-05-01 12:18:02,"949 N 9TH ST,MKE",43.0426807,-87.92375129999999,1,CONVEY PROPERTY,Assignment Completed
1212492,2018-05-01 12:45:36,"N 61ST ST / W CAPITOL DR,MKE",43.0898814,-87.9882148,7,ACC PDO,Service in Progress
1212424,2018-05-01 12:18:13,"1960 W ATKINSON AV,MKE",43.0900949,-87.93612279999999,5,CITIZEN CONTACT,Service in Progress
1212452,2018-05-01 12:25:08,"719 S CESAR E CHAVEZ DR,MKE",43.0237354,-87.9332182,2,THEFT,Service in Progress
1212436,2018-05-01 12:20:53,"2249 S ALDRICH ST,MKE",43.003516,-87.8995059,6,FIRE,Advised/Referral
1212422,2018-05-01 12:18:50,"1313 W GRANGE AV,MKE",42.944534,-87.9298226,6,BUSINESS CHECK,Assignment Completed
1212554,2018-05-01 13:14:15,"2840 W KILBOURN AV,MKE",43.041798,-87.9502651,3,ABAND/STOLEN PRO,Service in Progress
1212435,2018-05-01 12:20:55,"5220 W NORTH AV,MKE",43.0608071,-87.9794412,3,TRAFFIC STOP,City Citation(s) Issued
1212496,2018-05-01 12:54:51,"2154 N 52ND ST,MKE",43.0584066,-87.97845869999999,3,THEFT VEHICLE,Service in Progress
1212434,2018-05-01 12:22:23,"1425 N FARWELL AV,MKE",43.048748,-87.89660099999999,1,BUSINESS CHECK,Assignment Completed
1212468,2018-05-01 12:39:30,"5800-BLK N 92ND ST,MKE",43.1231474,-88.02706889999999,4,BATTERY,Unable to Locate Complainant
1212447,2018-05-01 12:28:45,"1926 W NASH ST,MKE",43.08498609999999,-87.93541429999999,5,SUBJ WITH GUN,Advised/Referral
1212569,2018-05-01 13:14:58,"1841 N 12TH ST,MKE",43.054829,-87.927442,3,TRBL W/SUBJ,Unable to Locate Complainant
1212460,2018-05-01 12:33:50,"S 4TH ST / W MINERAL ST,MKE",43.021153,-87.91546699999999,2,TRBL W/SUBJ,Service in Progress
1212465,2018-05-01 12:25:41,"N 51ST BL / W VILLARD AV,MKE",43.1119473,-87.97621629999999,7,ACC PI,Assignment Completed
1212444,2018-05-01 12:29:51,"3275 N 3RD ST,MKE",43.0783771,-87.91463329999999,5,MEET GOVT AGENCY,Service in Progress
1212450,2018-05-01 12:26:39,"6680 N TEUTONIA AV,MKE",43.1387543,-87.9529318,4,PROPERTY PICKUP,Assignment Completed
1212638,2018-05-01 13:12:12,"N 70TH ST / W BROWN DEER RD,MKE",43.1777215,-87.99763460000001,4,ACC PDO,To be Filed
1212449,2018-05-01 12:28:32,"3626 W FOND DU LAC AV,MKE",43.0766866,-87.95881700000001,7,RETURN STATION,Assignment Completed
1212506,2018-05-01 12:34:14,"3845 N TEUTONIA AV,MKE",43.0868816,-87.93765189999999,5,VIOL REST ORDER,Advised/Referral
1212525,2018-05-01 12:31:07,"2500-BLK W LOCUST ST,MKE",43.0715147,-87.944856,5,SHOTS FIRED,To be Filed
1212462,2018-05-01 12:33:20,"S 6TH ST / W MORGAN AV,MKE",42.9815174,-87.91932489999999,6,TRAFFIC HAZARD,Assignment Completed
1212463,2018-05-01 12:33:09,3151 W CAPITOL DR,43.0896931,-87.9523378,7,TRAFFIC STOP,Advised
1212524,2018-05-01 12:33:22,"3576 S 43RD ST,MKE",42.9791104,-87.96770629999999,6,PROBATION/PAROLE,Assignment Completed
1212458,2018-05-01 12:34:32,"749 W STATE ST,MKE",43.0426483,-87.9212718,1,SPECIAL ASSIGN,Service in Progress
1212505,2018-05-01 12:35:49,"2877 N SHERMAN BL,MKE",43.071397,-87.96788099999999,7,FOLLOW UP,Assignment Completed
1212540,2018-05-01 12:52:23,"3727 W WISCONSIN AV,MKE",43.0384853,-87.960511,3,ACC PDO,To be Filed
1212470,2018-05-01 12:36:22,"5411 W VLIET ST,MKE",43.0492133,-87.9817489,3,TRAFFIC STOP,Advised
1212469,2018-05-01 12:37:38,"4050 W BROWN ST,MKE",43.0564499,-87.96411669999999,3,TRAFFIC STOP,Advised
1212467,2018-05-01 12:39:39,"N TEUTONIA AV / W HAMPTON AV,MKE",43.1048565,-87.94631299999999,7,ACC UNKN INJ,Service in Progress
1212523,2018-05-01 12:42:08,"1139 W WINDLAKE AV,MKE",43.005985,-87.926214,2,NOISE NUISANCE,Unable to Locate Complainant
1212480,2018-05-01 12:41:00,"3951 W CAPITOL DR,MKE",43.0896085,-87.9629205,7,RECK USE OF WEAP,Unable to Locate Complainant
1212466,2018-05-01 12:39:40,"245 W LINCOLN AV,MKE",43.0024358,-87.9136371,2,RETURN STATION,Assignment Completed
1212498,2018-05-01 12:54:31,"2487 S 12TH ST,MKE",42.999405,-87.9275627,2,PROPERTY DAMAGE,Advised
1212595,2018-05-01 13:38:01,"1638 N 32ND ST,MKE",43.0523402,-87.9538314,3,THEFT,Assignment Completed
1212481,2018-05-01 12:40:53,"3400 S 9TH ST,MKE",42.9828729,-87.92282829999999,6,TRAFFIC STOP,Advised
1212488,2018-05-01 12:48:35,"N 55TH ST / W BURLEIGH ST,MKE",43.0698233,-87.98210739999999,7,ACC PDO,Service in Progress
1212478,2018-05-01 12:42:43,"W GREENFIELD AV / S 17TH ST,MKE",42.9994893,-87.9341599,2,PATROL,Assignment Completed
1212538,2018-05-01 13:02:11,"2427 W SCOTT ST,MKE",43.018847,-87.9445099,2,PROPERTY DAMAGE,Service in Progress
1212477,2018-05-01 12:43:46,"800 E LAYTON AV,MKE",42.959491,-87.899261,6,BUSINESS CHECK,Assignment Completed
1212476,2018-05-01 12:43:52,"200 N HARBOR DR,MKE",43.0298714,-87.8992201,1,BUSINESS CHECK,Assignment Completed
1212474,2018-05-01 12:44:51,"11301 W METRO AUTO MALL,MKE",43.1432995,-88.0531944,4,BUSINESS CHECK,Assignment Completed
1212528,2018-05-01 12:56:23,"7800 W MILL RD,MKE",43.1342027,-88.00889579999999,4,TRAFFIC HAZARD,Assignment Completed
1212494,2018-05-01 12:45:03,"4927 N 74TH ST,MKE",43.1074665,-88.0048695,7,PROBATION/PAROLE,Service in Progress
1212493,2018-05-01 12:45:23,"2051 S 5TH PL,MKE",43.0072009,-87.9179474,2,INVESTIGATION,Service in Progress
1212582,2018-05-01 13:27:26,"1500-BLK S 14TH ST,MKE",43.0499555,-87.92999929999999,2,SOLICITING,Service in Progress
1212490,2018-05-01 12:46:59,"6929 W SILVER SPRING DR,MKE",43.1188947,-87.9982818,4,POLICE ADMIN,Assignment Completed
1212504,2018-05-01 12:48:10,"4931 N 68TH ST,MKE",43.107722,-87.99670499999999,7,RECKLESS VEHICLE,Unable to Locate Complainant
1212786,2018-05-01 14:28:14,"5245 N 36TH ST,MKE",43.112933,-87.95798800000001,4,ENTRY,Assignment Completed
1212487,2018-05-01 12:49:08,"245 W LINCOLN AV,MKE",43.0024358,-87.9136371,2,SPECIAL ASSIGN,Service in Progress
1212639,2018-05-01 13:59:57,"6018 N 64TH ST,MKE",43.1273189,-87.9905685,4,TRBL W/SUBJ,Advised
1212486,2018-05-01 12:49:25,"900 W MORGAN AV,MKE",42.9813457,-87.9253513,6,TRAFFIC STOP,City Citation(s) Issued
1212485,2018-05-01 12:49:47,"245 W LINCOLN AV,MKE",43.0024358,-87.9136371,2,FOLLOW UP,Assignment Completed
1212503,2018-05-01 12:50:01,"1604 W LLOYD ST,MKE",43.05819,-87.93288199999999,3,PROBATION/PAROLE,Assignment Completed
1212520,2018-05-01 12:50:03,"3000 W CANAL ST,MKE",43.0312157,-87.9508962,3,POLICE ADMIN,Assignment Completed
1212563,2018-05-01 12:51:06,"245 W LINCOLN AV,MKE",43.0024358,-87.9136371,2,RETURN STATION,Assignment Completed
1212497,2018-05-01 12:54:42,"4273 S HOWELL AV,MKE",42.9667381,-87.9099394,6,TRAFFIC STOP,Advised
1212519,2018-05-01 12:55:03,"949 N 9TH ST,MKE",43.0426807,-87.92375129999999,1,ASSIGNMENT,Service in Progress
1212518,2018-05-01 12:55:24,"200 N 35TH ST,MKE",43.0326982,-87.95761,3,TRBL W/SUBJ,Advised
1212577,2018-05-01 13:00:51,"7790 N EDGEWORTH DR,MKE",43.1596085,-87.97977860000002,4,SUSP PERS/AUTO,Advised
1212509,2018-05-01 12:58:44,"4620 W CONCORDIA AV,MKE",43.0793415,-87.9716287,7,TRBL W/SUBJ,Advised
1212557,2018-05-01 13:12:24,"W CAPITOL DR / W FOND DU LAC AV,MKE",43.0943643,-87.9825621,7,TRAFFIC HAZARD,Assignment Completed
1212516,2018-05-01 12:56:18,"6680 N TEUTONIA AV,MKE",43.1387543,-87.9529318,4,COMMUNITY MTNG,Service in Progress
1212514,2018-05-01 12:56:50,"3006 S 27TH ST,MKE",42.990477,-87.9475489,6,RETURN STATION,Assignment Completed
1212513,2018-05-01 12:56:52,"245 W LINCOLN AV,MKE",43.0024358,-87.9136371,2,RETURN STATION,Assignment Completed
1212839,2018-05-01 14:56:07,"2304 W NATIONAL AV,MKE",43.0227441,-87.9424604,2,THEFT,Unable to Locate Complainant
1212512,2018-05-01 12:57:34,HOC,47.8465246,12.1370087,7,COURT DUTY,Service in Progress
1212536,2018-05-01 13:03:07,"S 6TH ST / W MORGAN AV,MKE",42.9815174,-87.91932489999999,6,TRAFFIC HAZARD,Assignment Completed
1212511,2018-05-01 12:58:11,"1801 W OLIVE ST,MKE",43.093505,-87.933084,5,CONVEY PROPERTY,Assignment Completed
1212510,2018-05-01 12:58:16,"1433 W BURNHAM ST,MKE",43.00942879999999,-87.9306586,2,BUSINESS CHECK,Assignment Completed
1212604,2018-05-01 12:59:02,"245 W LINCOLN AV,MKE",43.0024358,-87.9136371,2,SPECIAL ASSIGN,Assignment Completed
1212507,2018-05-01 12:59:27,"1330 S 17TH ST,MKE",43.0176293,-87.9343104,2,TRAFFIC STOP,Advised
1212652,2018-05-01 14:04:20,"N 99TH ST / W GREENWOOD TR,MKE",43.1203681,-88.0358108,4,BATTERY,Unable to Locate Complainant
1212614,2018-05-01 13:05:37,"3635 S 77TH ST,MKE",42.9784138,-88.00947389999999,6,BATTERY,Advised/Referral
1212537,2018-05-01 13:02:21,"4240 S 27TH ST,MKE",42.9680145,-87.94806969999999,6,BUSINESS CHECK,Assignment Completed
1212532,2018-05-01 13:03:45,"N 51ST BL / W CAPITOL DR,MKE",53.48933299999999,-113.514371,7,ENTRY AUTOS,Unable to Locate Complainant
